fips,county,state,lat,long,date,cases,state_code,deaths
1001,Autauga,Alabama,32.53952745,-86.64408227,2021-01-30,5596,AL,69
1003,Baldwin,Alabama,30.72774991,-87.72207058,2021-01-30,17922,AL,224
1005,Barbour,Alabama,31.868263,-85.3871286,2021-01-30,1931,AL,40
1007,Bibb,Alabama,32.99642064,-87.1251146,2021-01-30,2284,AL,51
1009,Blount,Alabama,33.98210918,-86.56790593,2021-01-30,5655,AL,98
1011,Bullock,Alabama,32.10030533,-85.71265535,2021-01-30,1075,AL,29
1013,Butler,Alabama,31.75300095,-86.68057478,2021-01-30,1800,AL,60
1015,Calhoun,Alabama,33.77483727,-85.82630386,2021-01-30,11918,AL,232
1017,Chambers,Alabama,32.91360079,-85.39072749,2021-01-30,3174,AL,76
1019,Cherokee,Alabama,34.17805983,-85.60638968,2021-01-30,1688,AL,35
1021,Chilton,Alabama,32.85044126,-86.7173256,2021-01-30,3531,AL,79
1023,Choctaw,Alabama,32.02227341,-88.2656443,2021-01-30,530,AL,24
1025,Clarke,Alabama,31.68099859,-87.83548597,2021-01-30,3182,AL,38
1027,Clay,Alabama,33.26984193,-85.85836077,2021-01-30,1323,AL,50
1029,Cleburne,Alabama,33.67679204,-85.52005899,2021-01-30,1266,AL,28
1031,Coffee,Alabama,31.39932826,-85.98901039,2021-01-30,4857,AL,72
1033,Colbert,Alabama,34.69847452,-87.80168544,2021-01-30,5710,AL,104
1035,Conecuh,Alabama,31.43401703,-86.99320044,2021-01-30,1001,AL,23
1037,Coosa,Alabama,32.93690146,-86.24847739,2021-01-30,674,AL,19
1039,Covington,Alabama,31.2477854,-86.45050893,2021-01-30,3532,AL,87
1041,Crenshaw,Alabama,31.72941803,-86.31593104,2021-01-30,1293,AL,47
1043,Cullman,Alabama,34.13020303,-86.86888037,2021-01-30,8504,AL,147
1045,Dale,Alabama,31.43037123,-85.61095742,2021-01-30,4261,AL,98
1047,Dallas,Alabama,32.32688101,-87.1086671,2021-01-30,3195,AL,111
1049,DeKalb,Alabama,34.45946862,-85.80782906,2021-01-30,8089,AL,136
1051,Elmore,Alabama,32.59785413,-86.14415284,2021-01-30,8534,AL,132
1053,Escambia,Alabama,31.1256789,-87.15918694,2021-01-30,3492,AL,48
1055,Etowah,Alabama,34.04567266,-86.04051873,2021-01-30,12424,AL,240
1057,Fayette,Alabama,33.72076938,-87.73886638,2021-01-30,1848,AL,39
1059,Franklin,Alabama,34.44235334,-87.84289505,2021-01-30,3832,AL,55
1061,Geneva,Alabama,31.09389027,-85.83572839,2021-01-30,2232,AL,52
1063,Greene,Alabama,32.85504247,-87.95684022,2021-01-30,795,AL,27
1065,Hale,Alabama,32.76039258,-87.63284988,2021-01-30,1930,AL,53
1067,Henry,Alabama,31.51148016,-85.24267944,2021-01-30,1656,AL,32
1069,Houston,Alabama,31.15197924,-85.29939599,2021-01-30,9369,AL,200
1071,Jackson,Alabama,34.78144169,-85.99750489,2021-01-30,6200,AL,69
1073,Jefferson,Alabama,33.55554728,-86.895063,2021-01-30,66323,AL,1112
1075,Lamar,Alabama,33.77995024,-88.09668032,2021-01-30,1235,AL,27
1077,Lauderdale,Alabama,34.90171875,-87.65624729,2021-01-30,8134,AL,151
1079,Lawrence,Alabama,34.52041498,-87.31069453,2021-01-30,2628,AL,69
1081,Lee,Alabama,32.60154883,-85.35132246,2021-01-30,13679,AL,124
1083,Limestone,Alabama,34.81185586,-86.98310072,2021-01-30,8618,AL,105
1085,Lowndes,Alabama,32.1597283,-86.65158371,2021-01-30,1205,AL,39
1087,Macon,Alabama,32.38759944,-85.69267724,2021-01-30,1273,AL,38
1089,Madison,Alabama,34.76327133,-86.55069633,2021-01-30,29333,AL,274
1091,Marengo,Alabama,32.24767634,-87.78796182,2021-01-30,2170,AL,34
1093,Marion,Alabama,34.13697363,-87.88704173,2021-01-30,2597,AL,73
1095,Marshall,Alabama,34.36975964,-86.30486727,2021-01-30,10714,AL,144
1097,Mobile,Alabama,30.78472347,-88.20842409,2021-01-30,32747,AL,608
1099,Monroe,Alabama,31.56729412,-87.36995001,2021-01-30,1559,AL,22
1101,Montgomery,Alabama,32.2206831,-86.20969272,2021-01-30,20697,AL,363
1103,Morgan,Alabama,34.45500589,-86.85475946,2021-01-30,12936,AL,171
80001,Out of AL,Alabama,0,0,2021-01-30,0,AL,0
1105,Perry,Alabama,32.64048341,-87.29770589,2021-01-30,1017,AL,19
1107,Pickens,Alabama,33.28094866,-88.08818103,2021-01-30,2060,AL,31
1109,Pike,Alabama,31.80396383,-85.9408295,2021-01-30,2731,AL,40
1111,Randolph,Alabama,33.29526734,-85.45708831,2021-01-30,1512,AL,37
1113,Russell,Alabama,32.28725256,-85.18415324,2021-01-30,3696,AL,18
1117,Shelby,Alabama,33.26879845,-86.66232561,2021-01-30,20013,AL,150
1115,St. Clair,Alabama,33.71902176,-86.31029372,2021-01-30,8091,AL,149
1119,Sumter,Alabama,32.59117397,-88.19916205,2021-01-30,928,AL,28
1121,Talladega,Alabama,33.37823223,-86.16886178,2021-01-30,6762,AL,116
1123,Tallapoosa,Alabama,32.86698258,-85.79833053,2021-01-30,3283,AL,113
1125,Tuscaloosa,Alabama,33.28726072,-87.52556818,2021-01-30,22241,AL,299
90001,Unassigned,Alabama,0,0,2021-01-30,0,AL,0
1127,Walker,Alabama,33.80270512,-87.30027177,2021-01-30,6131,AL,194
1129,Washington,Alabama,31.4092794,-88.20689944,2021-01-30,1464,AL,27
1131,Wilcox,Alabama,31.98773215,-87.30891118,2021-01-30,1125,AL,22
1133,Winston,Alabama,34.15030532,-87.37325922,2021-01-30,2377,AL,45
2013,Aleutians East,Alaska,55.32222414,-161.9722021,2021-01-30,86,AK,0
2016,Aleutians West,Alaska,52.3233,-174.1596,2021-01-30,322,AK,0
2020,Anchorage,Alaska,61.14998174,-149.1426986,2021-01-30,25440,AK,141
2050,Bethel,Alaska,60.90980451,-159.8561831,2021-01-30,3317,AK,15
2060,Bristol Bay,Alaska,58.74513976,-156.701064,2021-01-30,0,AK,0
2164,Bristol Bay plus Lake and Peninsula,Alaska,58.62403337,-156.2140589,2021-01-30,170,AK,0
2068,Denali,Alaska,63.67264044,-150.0076108,2021-01-30,68,AK,0
2070,Dillingham,Alaska,59.79603738,-158.2381942,2021-01-30,169,AK,1
2090,Fairbanks North Star,Alaska,64.80726247,-146.5692662,2021-01-30,5863,AK,26
2100,Haines,Alaska,59.09893571,-135.4679843,2021-01-30,26,AK,0
2105,Hoonah-Angoon,Alaska,58.29307365,-135.6424424,2021-01-30,0,AK,0
2110,Juneau,Alaska,58.45031811,-134.200436,2021-01-30,1154,AK,5
2122,Kenai Peninsula,Alaska,60.24429722,-151.5388884,2021-01-30,3913,AK,21
2130,Ketchikan Gateway,Alaska,55.57445008,-130.975561,2021-01-30,283,AK,1
2150,Kodiak Island,Alaska,57.65529415,-153.7493579,2021-01-30,1032,AK,5
2158,Kusilvak,Alaska,62.1542916,-163.3967883,2021-01-30,1116,AK,3
2170,Matanuska-Susitna,Alaska,62.31305045,-149.5741743,2021-01-30,7487,AK,27
2180,Nome,Alaska,64.90320724,-164.0353804,2021-01-30,309,AK,0
2185,North Slope,Alaska,69.31479216,-153.4836093,2021-01-30,983,AK,3
2188,Northwest Arctic,Alaska,67.04919196,-159.7503946,2021-01-30,570,AK,1
80002,Out of AK,Alaska,0,0,2021-01-30,0,AK,0
2195,Petersburg,Alaska,57.13978948,-132.9540995,2021-01-30,47,AK,1
2198,Prince of Wales-Hyder,Alaska,55.76261984,-133.0511621,2021-01-30,75,AK,1
2220,Sitka,Alaska,57.24124555,-135.3206587,2021-01-30,303,AK,0
2230,Skagway,Alaska,59.56149996,-135.3337748,2021-01-30,16,AK,0
2240,Southeast Fairbanks,Alaska,63.87692095,-143.2127643,2021-01-30,433,AK,3
90002,Unassigned,Alaska,0,0,2021-01-30,233,AK,0
2261,Valdez-Cordova,Alaska,61.47502768,-144.7126799,2021-01-30,442,AK,3
2275,Wrangell,Alaska,56.3202004,-132.0583731,2021-01-30,26,AK,0
2282,Yakutat,Alaska,59.8909808,-140.3601451,2021-01-30,66,AK,1
2290,Yukon-Koyukuk,Alaska,65.50815459,-151.3907387,2021-01-30,267,AK,4
60,NA,American Samoa,-14.271,-170.132,2021-01-30,0,NA,0
4001,Apache,Arizona,35.39465006,-109.4892383,2021-01-30,9507,AZ,311
4003,Cochise,Arizona,31.87934684,-109.7516088,2021-01-30,10413,AZ,226
4005,Coconino,Arizona,35.83883429,-111.7707178,2021-01-30,15144,AZ,276
4007,Gila,Arizona,33.80190085,-110.8132779,2021-01-30,5981,AZ,188
4009,Graham,Arizona,32.93166885,-109.8882178,2021-01-30,5086,AZ,65
4011,Greenlee,Arizona,33.21498827,-109.2405279,2021-01-30,521,AZ,6
4012,La Paz,Arizona,33.72854224,-113.9810029,2021-01-30,2222,AZ,58
4013,Maricopa,Arizona,33.34835867,-112.4918154,2021-01-30,469294,AZ,7442
4015,Mohave,Arizona,35.70471703,-113.7577902,2021-01-30,19205,AZ,519
4017,Navajo,Arizona,35.3997715,-110.3218983,2021-01-30,14366,AZ,429
80004,Out of AZ,Arizona,0,0,2021-01-30,0,AZ,0
4019,Pima,Arizona,32.0971334,-111.7890033,2021-01-30,100810,AZ,1738
4021,Pinal,Arizona,32.90525627,-111.3449483,2021-01-30,42284,AZ,613
4023,Santa Cruz,Arizona,31.52508998,-110.8479088,2021-01-30,7404,AZ,149
90004,Unassigned,Arizona,0,0,2021-01-30,0,AZ,0
4025,Yavapai,Arizona,34.59933926,-112.5538588,2021-01-30,16152,AZ,381
4027,Yuma,Arizona,32.76895712,-113.9066674,2021-01-30,34990,AZ,697
5001,Arkansas,Arkansas,34.29145151,-91.37277296,2021-01-30,1770,AR,36
5003,Ashley,Arkansas,33.19153461,-91.7698471,2021-01-30,1637,AR,27
5005,Baxter,Arkansas,36.28784385,-92.33782872,2021-01-30,2629,AR,94
5007,Benton,Arkansas,36.33644656,-94.25680817,2021-01-30,25025,AR,345
5009,Boone,Arkansas,36.3084504,-93.09374925,2021-01-30,3329,AR,74
5011,Bradley,Arkansas,33.46755808,-92.15980837,2021-01-30,1247,AR,29
5013,Calhoun,Arkansas,33.55598792,-92.49974403,2021-01-30,344,AR,2
5015,Carroll,Arkansas,36.3403856,-93.54270261,2021-01-30,2575,AR,39
5017,Chicot,Arkansas,33.26458973,-91.29539209,2021-01-30,1551,AR,38
5019,Clark,Arkansas,34.04613432,-93.17484713,2021-01-30,1831,AR,34
5021,Clay,Arkansas,36.36826212,-90.4148172,2021-01-30,1562,AR,41
5023,Cleburne,Arkansas,35.53864922,-92.02640019,2021-01-30,1753,AR,59
5025,Cleveland,Arkansas,33.89723187,-92.18537045,2021-01-30,791,AR,23
5027,Columbia,Arkansas,33.21230701,-93.22642793,2021-01-30,1926,AR,50
5029,Conway,Arkansas,35.26205537,-92.70506566,2021-01-30,1974,AR,27
5031,Craighead,Arkansas,35.83018283,-90.63235729,2021-01-30,12123,AR,166
5033,Crawford,Arkansas,35.58928601,-94.2446814,2021-01-30,6163,AR,89
5035,Crittenden,Arkansas,35.21247318,-90.30839406,2021-01-30,5358,AR,84
5037,Cross,Arkansas,35.29631396,-90.77185818,2021-01-30,1818,AR,43
5039,Dallas,Arkansas,33.97042763,-92.65167437,2021-01-30,664,AR,12
5041,Desha,Arkansas,33.83011025,-91.25500948,2021-01-30,1204,AR,17
5043,Drew,Arkansas,33.59035001,-91.71777921,2021-01-30,1858,AR,31
5045,Faulkner,Arkansas,35.14719007,-92.33717519,2021-01-30,10596,AR,134
5047,Franklin,Arkansas,35.51202821,-93.89299569,2021-01-30,1500,AR,30
5049,Fulton,Arkansas,36.38177105,-91.81729127,2021-01-30,1024,AR,42
5051,Garland,Arkansas,34.57692074,-93.14921604,2021-01-30,8354,AR,203
5053,Grant,Arkansas,34.29017991,-92.42320562,2021-01-30,1383,AR,28
5055,Greene,Arkansas,36.1173546,-90.55832668,2021-01-30,5482,AR,65
5057,Hempstead,Arkansas,33.73325583,-93.66935133,2021-01-30,1628,AR,14
5059,Hot Spring,Arkansas,34.31709259,-92.95396325,2021-01-30,4382,AR,62
5061,Howard,Arkansas,34.09007427,-93.9934871,2021-01-30,1348,AR,21
5063,Independence,Arkansas,35.74242707,-91.57001641,2021-01-30,3451,AR,112
5065,Izard,Arkansas,36.09604046,-91.90847954,2021-01-30,1555,AR,36
5067,Jackson,Arkansas,35.59802983,-91.21494602,2021-01-30,3065,AR,32
5069,Jefferson,Arkansas,34.26767081,-91.92619839,2021-01-30,8041,AR,148
5071,Johnson,Arkansas,35.56759135,-93.46036368,2021-01-30,2488,AR,28
5073,Lafayette,Arkansas,33.24116713,-93.60677071,2021-01-30,444,AR,7
5075,Lawrence,Arkansas,36.04188196,-91.10867198,2021-01-30,1905,AR,41
5077,Lee,Arkansas,34.78498904,-90.78383866,2021-01-30,1597,AR,31
5079,Lincoln,Arkansas,33.95317155,-91.74002806,2021-01-30,3045,AR,38
5081,Little River,Arkansas,33.70375665,-94.23468591,2021-01-30,1031,AR,39
5083,Logan,Arkansas,35.21413234,-93.71951016,2021-01-30,1965,AR,15
5085,Lonoke,Arkansas,34.75392199,-91.88742357,2021-01-30,5939,AR,103
5087,Madison,Arkansas,36.01038185,-93.72524943,2021-01-30,1333,AR,18
5089,Marion,Arkansas,36.26844485,-92.68451899,2021-01-30,861,AR,27
5091,Miller,Arkansas,33.31403423,-93.89285258,2021-01-30,3363,AR,29
5093,Mississippi,Arkansas,35.76271485,-90.0519437,2021-01-30,5234,AR,105
5095,Monroe,Arkansas,34.6815935,-91.20540287,2021-01-30,730,AR,14
5097,Montgomery,Arkansas,34.53704874,-93.65824478,2021-01-30,653,AR,27
5099,Nevada,Arkansas,33.66340119,-93.30632432,2021-01-30,717,AR,23
5101,Newton,Arkansas,35.91947491,-93.21612969,2021-01-30,646,AR,26
5103,Ouachita,Arkansas,33.58839816,-92.87795984,2021-01-30,1963,AR,45
80005,Out of AR,Arkansas,0,0,2021-01-30,0,AR,0
5105,Perry,Arkansas,34.9459153,-92.94372564,2021-01-30,677,AR,7
5107,Phillips,Arkansas,34.43268455,-90.84800154,2021-01-30,1602,AR,31
5109,Pike,Arkansas,34.16250414,-93.65789349,2021-01-30,877,AR,19
5111,Poinsett,Arkansas,35.57433534,-90.66268713,2021-01-30,2926,AR,72
5113,Polk,Arkansas,34.48254879,-94.22728802,2021-01-30,1652,AR,55
5115,Pope,Arkansas,35.44871474,-93.03212219,2021-01-30,7167,AR,85
5117,Prairie,Arkansas,34.83624419,-91.55162157,2021-01-30,785,AR,20
5119,Pulaski,Arkansas,34.77054088,-92.31355101,2021-01-30,33624,AR,503
5121,Randolph,Arkansas,36.3415714,-91.02455531,2021-01-30,1831,AR,46
5125,Saline,Arkansas,34.64916145,-92.67583224,2021-01-30,10370,AR,147
5127,Scott,Arkansas,34.85588887,-94.0632176,2021-01-30,867,AR,14
5129,Searcy,Arkansas,35.9109364,-92.69936482,2021-01-30,615,AR,14
5131,Sebastian,Arkansas,35.19605503,-94.27162713,2021-01-30,13517,AR,227
5133,Sevier,Arkansas,33.99780401,-94.2424869,2021-01-30,2341,AR,25
5135,Sharp,Arkansas,36.16258158,-91.47819342,2021-01-30,1445,AR,46
5123,St. Francis,Arkansas,35.02201976,-90.74828138,2021-01-30,3310,AR,32
5137,Stone,Arkansas,35.86251946,-92.15684085,2021-01-30,921,AR,29
90005,Unassigned,Arkansas,0,0,2021-01-30,2885,AR,0
5139,Union,Arkansas,33.16887091,-92.59746952,2021-01-30,3327,AR,92
5141,Van Buren,Arkansas,35.58095779,-92.51295036,2021-01-30,1117,AR,13
5143,Washington,Arkansas,35.976844,-94.21800746,2021-01-30,27620,AR,302
5145,White,Arkansas,35.25688493,-91.74908296,2021-01-30,6467,AR,89
5147,Woodruff,Arkansas,35.18902527,-91.2439489,2021-01-30,552,AR,6
5149,Yell,Arkansas,35.00292371,-93.41171338,2021-01-30,3037,AR,61
6001,Alameda,California,37.64629437,-121.8929271,2021-01-30,73542,CA,974
6003,Alpine,California,38.59678594,-119.8223594,2021-01-30,74,CA,0
6005,Amador,California,38.44583082,-120.65696,2021-01-30,3156,CA,33
6007,Butte,California,39.66727762,-121.6005252,2021-01-30,10122,CA,138
6009,Calaveras,California,38.20537103,-120.552913,2021-01-30,1757,CA,23
6011,Colusa,California,39.17881957,-122.2331726,2021-01-30,1935,CA,10
6013,Contra Costa,California,37.91923498,-121.9289527,2021-01-30,57021,CA,529
6015,Del Norte,California,41.74228275,-123.8974063,2021-01-30,883,CA,3
6017,El Dorado,California,38.77965956,-120.5233166,2021-01-30,8359,CA,79
6019,Fresno,California,36.75733899,-119.6466953,2021-01-30,87936,CA,1137
6021,Glenn,California,39.59875897,-122.3938452,2021-01-30,2061,CA,23
6023,Humboldt,California,40.69923009,-123.876044,2021-01-30,2754,CA,30
6025,Imperial,California,33.0393082,-115.3669042,2021-01-30,26045,CA,532
6027,Inyo,California,36.51112084,-117.4111978,2021-01-30,1083,CA,29
6029,Kern,California,35.34329425,-118.7277796,2021-01-30,93628,CA,624
6031,Kings,California,36.07409056,-119.8159973,2021-01-30,20668,CA,171
6033,Lake,California,39.10124298,-122.7536244,2021-01-30,2792,CA,32
6035,Lassen,California,40.67311306,-120.5935099,2021-01-30,5393,CA,16
6037,Los Angeles,California,34.30828379,-118.2282411,2021-01-30,1111391,CA,16652
6039,Madera,California,37.21513971,-119.7665589,2021-01-30,14377,CA,175
6041,Marin,California,38.07122463,-122.7210631,2021-01-30,12284,CA,172
6043,Mariposa,California,37.57978556,-119.9073334,2021-01-30,367,CA,5
6045,Mendocino,California,39.4381191,-123.3911313,2021-01-30,3392,CA,37
6047,Merced,California,37.18922369,-120.7209035,2021-01-30,26230,CA,350
6049,Modoc,California,41.58965602,-120.7244817,2021-01-30,407,CA,4
6051,Mono,California,37.93899289,-118.8872409,2021-01-30,1164,CA,4
6053,Monterey,California,36.21862405,-121.2413397,2021-01-30,39425,CA,285
6055,Napa,California,38.50735751,-122.332839,2021-01-30,8276,CA,54
6057,Nevada,California,39.30394768,-120.7627281,2021-01-30,3487,CA,74
6059,Orange,California,33.70147516,-117.7645998,2021-01-30,244562,CA,3018
80006,Out of CA,California,0,0,2021-01-30,0,CA,0
6061,Placer,California,39.06167234,-120.7240569,2021-01-30,18399,CA,199
6063,Plumas,California,40.00355989,-120.8395236,2021-01-30,626,CA,6
6065,Riverside,California,33.74314981,-115.9933578,2021-01-30,271910,CA,3091
6067,Sacramento,California,38.45106826,-121.3425374,2021-01-30,86320,CA,1239
6069,San Benito,California,36.60308176,-121.069975,2021-01-30,5386,CA,52
6071,San Bernardino,California,34.84060306,-116.1774685,2021-01-30,273520,CA,1821
6073,San Diego,California,33.03484597,-116.7365326,2021-01-30,236768,CA,2603
6075,San Francisco,California,37.75215114,-122.4385672,2021-01-30,31294,CA,323
6077,San Joaquin,California,37.93433732,-121.2730061,2021-01-30,61901,CA,853
6079,San Luis Obispo,California,35.38822029,-120.4039028,2021-01-30,17605,CA,168
6081,San Mateo,California,37.4228808,-122.3275546,2021-01-30,35466,CA,382
6083,Santa Barbara,California,34.65329488,-120.0188492,2021-01-30,28338,CA,291
6085,Santa Clara,California,37.23104908,-121.6970462,2021-01-30,101453,CA,1395
6087,Santa Cruz,California,37.05580291,-122.0066524,2021-01-30,13321,CA,148
6089,Shasta,California,40.76391419,-122.0396884,2021-01-30,10333,CA,142
6091,Sierra,California,39.57713498,-120.5200701,2021-01-30,95,CA,0
6093,Siskiyou,California,41.59198861,-122.5407434,2021-01-30,1532,CA,13
6095,Solano,California,38.26827353,-121.9357113,2021-01-30,27706,CA,122
6097,Sonoma,California,38.52746429,-122.8862506,2021-01-30,25992,CA,260
6099,Stanislaus,California,37.55862499,-120.9970722,2021-01-30,50668,CA,828
6101,Sutter,California,39.03417539,-121.6945899,2021-01-30,8264,CA,86
6103,Tehama,California,40.12570935,-122.2370171,2021-01-30,4660,CA,47
6105,Trinity,California,40.6491767,-123.114713,2021-01-30,307,CA,5
6107,Tulare,California,36.22026558,-118.8020203,2021-01-30,44518,CA,588
6109,Tuolumne,California,38.02644018,-119.9525093,2021-01-30,3549,CA,49
90006,Unassigned,California,0,0,2021-01-30,0,CA,0
6111,Ventura,California,34.44465746,-119.0910613,2021-01-30,69511,CA,598
6113,Yolo,California,38.68278902,-121.9018288,2021-01-30,11612,CA,149
6115,Yuba,California,39.26255932,-121.3535644,2021-01-30,5324,CA,31
8001,Adams,Colorado,39.87432092,-104.3362578,2021-01-30,45618,CO,581
8003,Alamosa,Colorado,37.57250606,-105.7885451,2021-01-30,1154,CO,28
8005,Arapahoe,Colorado,39.64977461,-104.3353617,2021-01-30,44881,CO,609
8007,Archuleta,Colorado,37.19474156,-107.0476867,2021-01-30,603,CO,1
8009,Baca,Colorado,37.31940883,-102.5603223,2021-01-30,264,CO,3
8011,Bent,Colorado,37.95474293,-103.0720195,2021-01-30,1288,CO,20
8013,Boulder,Colorado,40.09313619,-105.3546767,2021-01-30,17179,CO,213
8014,Broomfield,Colorado,39.95998787,-105.0566324,2021-01-30,3408,CO,70
8015,Chaffee,Colorado,38.74745778,-106.1926573,2021-01-30,1307,CO,23
8017,Cheyenne,Colorado,38.82777431,-102.6032558,2021-01-30,120,CO,5
8019,Clear Creek,Colorado,39.68864463,-105.6463118,2021-01-30,344,CO,2
8021,Conejos,Colorado,37.201606,-106.1917488,2021-01-30,406,CO,4
8023,Costilla,Colorado,37.27732493,-105.4276548,2021-01-30,179,CO,2
8025,Crowley,Colorado,38.32608609,-103.7844965,2021-01-30,1816,CO,14
8027,Custer,Colorado,38.10883162,-105.3683478,2021-01-30,160,CO,1
8029,Delta,Colorado,38.86246243,-107.8631342,2021-01-30,2324,CO,51
8031,Denver,Colorado,39.76018276,-104.8725695,2021-01-30,55588,CO,736
8033,Dolores,Colorado,37.75208676,-108.5211585,2021-01-30,62,CO,0
8035,Douglas,Colorado,39.33133796,-104.930001,2021-01-30,18861,CO,219
8037,Eagle,Colorado,39.62754308,-106.6933637,2021-01-30,4375,CO,17
8041,El Paso,Colorado,38.83240149,-104.5251411,2021-01-30,47657,CO,704
8039,Elbert,Colorado,39.28656773,-104.1358721,2021-01-30,1146,CO,12
8043,Fremont,Colorado,38.47362326,-105.4399667,2021-01-30,5168,CO,37
8045,Garfield,Colorado,39.59921777,-107.902708,2021-01-30,4805,CO,38
8047,Gilpin,Colorado,39.85646523,-105.5252597,2021-01-30,149,CO,3
8049,Grand,Colorado,40.10603347,-106.1178042,2021-01-30,953,CO,5
8051,Gunnison,Colorado,38.66611652,-107.0320729,2021-01-30,1051,CO,6
8053,Hinsdale,Colorado,37.82247444,-107.3004345,2021-01-30,16,CO,0
8055,Huerfano,Colorado,37.68473101,-104.9612585,2021-01-30,292,CO,17
8057,Jackson,Colorado,40.6659387,-106.3408905,2021-01-30,45,CO,0
8059,Jefferson,Colorado,39.58635604,-105.2517692,2021-01-30,34509,CO,683
8061,Kiowa,Colorado,38.43260896,-102.7392145,2021-01-30,88,CO,3
8063,Kit Carson,Colorado,39.30497777,-102.6022199,2021-01-30,504,CO,10
8067,La Plata,Colorado,37.28632032,-107.8429014,2021-01-30,2703,CO,34
8065,Lake,Colorado,39.20278823,-106.3555697,2021-01-30,527,CO,0
8069,Larimer,Colorado,40.66671597,-105.4625784,2021-01-30,17999,CO,195
8071,Las Animas,Colorado,37.3153406,-104.0376458,2021-01-30,915,CO,11
8073,Lincoln,Colorado,38.98749519,-103.5136649,2021-01-30,922,CO,3
8075,Logan,Colorado,40.7249637,-103.110817,2021-01-30,3620,CO,60
8077,Mesa,Colorado,39.01787888,-108.469799,2021-01-30,12050,CO,172
8079,Mineral,Colorado,37.66954283,-106.9281698,2021-01-30,61,CO,1
8081,Moffat,Colorado,40.61810999,-108.2070876,2021-01-30,620,CO,22
8083,Montezuma,Colorado,37.33859579,-108.5958857,2021-01-30,1623,CO,22
8085,Montrose,Colorado,38.40214114,-108.2639022,2021-01-30,3008,CO,45
8087,Morgan,Colorado,40.2627981,-103.8093302,2021-01-30,2362,CO,88
8089,Otero,Colorado,37.9014485,-103.7173385,2021-01-30,1788,CO,59
8091,Ouray,Colorado,38.14717457,-107.7675136,2021-01-30,207,CO,3
80008,Out of CO,Colorado,0,0,2021-01-30,0,CO,0
8093,Park,Colorado,39.120926,-105.7182065,2021-01-30,485,CO,5
8095,Phillips,Colorado,40.59414277,-102.3577703,2021-01-30,325,CO,11
8097,Pitkin,Colorado,39.21720112,-106.9310027,2021-01-30,1824,CO,4
8099,Prowers,Colorado,37.95544985,-102.3926052,2021-01-30,1119,CO,21
8101,Pueblo,Colorado,38.17359144,-104.5127437,2021-01-30,14326,CO,356
8103,Rio Blanco,Colorado,39.97913541,-108.2179009,2021-01-30,398,CO,3
8105,Rio Grande,Colorado,37.5836865,-106.3847838,2021-01-30,622,CO,10
8107,Routt,Colorado,40.48596505,-106.9905548,2021-01-30,1603,CO,19
8109,Saguache,Colorado,38.08054629,-106.282466,2021-01-30,293,CO,4
8111,San Juan,Colorado,37.76248981,-107.6763289,2021-01-30,43,CO,0
8113,San Miguel,Colorado,38.00450883,-108.4020725,2021-01-30,673,CO,0
8115,Sedgwick,Colorado,40.87595412,-102.3519227,2021-01-30,189,CO,2
8117,Summit,Colorado,39.63803232,-106.1150762,2021-01-30,2632,CO,5
8119,Teller,Colorado,38.88133511,-105.1614893,2021-01-30,1176,CO,14
90008,Unassigned,Colorado,0,0,2021-01-30,38,CO,0
8121,Washington,Colorado,39.97015535,-103.202587,2021-01-30,365,CO,12
8123,Weld,Colorado,40.55499405,-104.3929621,2021-01-30,23523,CO,306
8125,Yuma,Colorado,40.00346839,-102.4258673,2021-01-30,660,CO,16
9001,Fairfield,Connecticut,41.26809896,-73.3881171,2021-01-30,72026,CT,1932
9003,Hartford,Connecticut,41.80283011,-72.73103891,2021-01-30,63211,CT,2107
9005,Litchfield,Connecticut,41.7937534,-73.2451475,2021-01-30,9883,CT,254
9007,Middlesex,Connecticut,41.45949668,-72.53714864,2021-01-30,9202,CT,319
9009,New Haven,Connecticut,41.4080325,-72.93620426,2021-01-30,63085,CT,1786
9011,New London,Connecticut,41.48896435,-72.10430976,2021-01-30,16753,CT,364
80009,Out of CT,Connecticut,0,0,2021-01-30,0,CT,0
9013,Tolland,Connecticut,41.85853803,-72.3308481,2021-01-30,6841,CT,135
90009,Unassigned,Connecticut,0,0,2021-01-30,822,CT,7
9015,Windham,Connecticut,41.82972709,-71.98182316,2021-01-30,8200,CT,142
10001,Kent,Delaware,39.08646628,-75.56884914,2021-01-30,12746,DE,199
10003,New Castle,Delaware,39.57992638,-75.64054974,2021-01-30,44073,DE,538
80010,Out of DE,Delaware,0,0,2021-01-30,0,DE,0
10005,Sussex,Delaware,38.66143781,-75.39031349,2021-01-30,20550,DE,344
90010,Unassigned,Delaware,0,0,2021-01-30,182,DE,0
88888,NA,Diamond Princess,0,0,2021-01-30,49,NA,0
11001,District of Columbia,District of Columbia,38.90417773,-77.01655992,2021-01-30,36662,NA,909
80011,Out of DC,District of Columbia,0,0,2021-01-30,0,NA,0
90011,Unassigned,District of Columbia,0,0,2021-01-30,0,NA,0
12001,Alachua,Florida,29.67866525,-82.35928158,2021-01-30,20566,FL,166
12003,Baker,Florida,30.33060121,-82.28467476,2021-01-30,3023,FL,48
12005,Bay,Florida,30.26548745,-85.62122584,2021-01-30,16504,FL,287
12007,Bradford,Florida,29.95079741,-82.16611613,2021-01-30,2649,FL,38
12009,Brevard,Florida,28.29409504,-80.73091022,2021-01-30,29177,FL,650
12011,Broward,Florida,26.15184651,-80.48725556,2021-01-30,172082,FL,2082
12013,Calhoun,Florida,30.40666734,-85.19394153,2021-01-30,1529,FL,36
12015,Charlotte,Florida,26.90131002,-81.92949121,2021-01-30,9688,FL,292
12017,Citrus,Florida,28.84804315,-82.47614748,2021-01-30,8642,FL,344
12019,Clay,Florida,29.98319144,-81.85609986,2021-01-30,15318,FL,243
12021,Collier,Florida,26.11091986,-81.34687065,2021-01-30,27723,FL,404
12023,Columbia,Florida,30.22509788,-82.62160164,2021-01-30,7222,FL,143
12027,DeSoto,Florida,27.18677893,-81.80941373,2021-01-30,3363,FL,67
12029,Dixie,Florida,29.60631086,-83.15724673,2021-01-30,1390,FL,13
12031,Duval,Florida,30.33225875,-81.66976468,2021-01-30,81530,FL,902
12033,Escambia,Florida,30.67652764,-87.37284571,2021-01-30,30783,FL,528
12035,Flagler,Florida,29.45933576,-81.31508595,2021-01-30,5254,FL,70
12037,Franklin,Florida,29.83791238,-84.82731662,2021-01-30,1225,FL,10
12039,Gadsden,Florida,30.57796289,-84.61915825,2021-01-30,5077,FL,69
12041,Gilchrist,Florida,29.72856978,-82.79880657,2021-01-30,1216,FL,28
12043,Glades,Florida,26.95635849,-81.18996211,2021-01-30,868,FL,13
12045,Gulf,Florida,29.93543004,-85.2427099,2021-01-30,1692,FL,32
12047,Hamilton,Florida,30.49673973,-82.94998918,2021-01-30,1497,FL,17
12049,Hardee,Florida,27.49293939,-81.80956574,2021-01-30,2569,FL,23
12051,Hendry,Florida,26.55386945,-81.16469006,2021-01-30,4035,FL,55
12053,Hernando,Florida,28.55364461,-82.42700204,2021-01-30,9905,FL,342
12055,Highlands,Florida,27.34254618,-81.34071957,2021-01-30,6455,FL,260
12057,Hillsborough,Florida,27.9276559,-82.32013172,2021-01-30,100334,FL,1293
12059,Holmes,Florida,30.86747479,-85.81319222,2021-01-30,2072,FL,34
12061,Indian River,Florida,27.69308961,-80.60556721,2021-01-30,9736,FL,226
12063,Jackson,Florida,30.7954597,-85.21500423,2021-01-30,5648,FL,133
12065,Jefferson,Florida,30.43669112,-83.89442308,2021-01-30,1285,FL,22
12067,Lafayette,Florida,29.98484137,-83.18166636,2021-01-30,1531,FL,23
12069,Lake,Florida,28.76202069,-81.7125123,2021-01-30,21697,FL,426
12071,Lee,Florida,26.58410348,-81.88399313,2021-01-30,52420,FL,793
12073,Leon,Florida,30.45955727,-84.27491114,2021-01-30,26395,FL,230
12075,Levy,Florida,29.31829741,-82.74007147,2021-01-30,2545,FL,23
12077,Liberty,Florida,30.23766008,-84.8829258,2021-01-30,993,FL,14
12079,Madison,Florida,30.44396917,-83.47398594,2021-01-30,1829,FL,37
12081,Manatee,Florida,27.47196942,-82.31831044,2021-01-30,28468,FL,495
12083,Marion,Florida,29.21227113,-82.05803627,2021-01-30,24370,FL,575
12085,Martin,Florida,27.0772071,-80.43109784,2021-01-30,9585,FL,238
12086,Miami-Dade,Florida,25.6112362,-80.55170587,2021-01-30,370642,FL,4845
12087,Monroe,Florida,25.20904673,-81.07812416,2021-01-30,5332,FL,40
12089,Nassau,Florida,30.61037141,-81.80297522,2021-01-30,6954,FL,93
12091,Okaloosa,Florida,30.69143028,-86.59267105,2021-01-30,16639,FL,285
12093,Okeechobee,Florida,27.3863362,-80.88944347,2021-01-30,3254,FL,63
12095,Orange,Florida,28.51367621,-81.31799498,2021-01-30,102897,FL,939
12097,Osceola,Florida,28.06312234,-81.14882926,2021-01-30,33447,FL,374
80012,Out of FL,Florida,0,0,2021-01-30,0,FL,0
12099,Palm Beach,Florida,26.64676272,-80.46536002,2021-01-30,106691,FL,2166
12101,Pasco,Florida,28.30810945,-82.40227529,2021-01-30,29432,FL,539
12103,Pinellas,Florida,27.93130349,-82.72239666,2021-01-30,59207,FL,1288
12105,Polk,Florida,27.95027105,-81.69732947,2021-01-30,50201,FL,967
12107,Putnam,Florida,29.60779729,-81.74230285,2021-01-30,5428,FL,101
12113,Santa Rosa,Florida,30.6934145,-87.02458128,2021-01-30,15391,FL,211
12115,Sarasota,Florida,27.18546175,-82.33174248,2021-01-30,24645,FL,624
12117,Seminole,Florida,28.7158582,-81.24060348,2021-01-30,24055,FL,373
12109,St. Johns,Florida,29.90096506,-81.43589967,2021-01-30,18261,FL,164
12111,St. Lucie,Florida,27.37763908,-80.47106649,2021-01-30,19429,FL,483
12119,Sumter,Florida,28.70181754,-82.0794267,2021-01-30,7070,FL,186
12121,Suwannee,Florida,30.19746066,-82.9909967,2021-01-30,4833,FL,117
12123,Taylor,Florida,30.04848048,-83.60445406,2021-01-30,2484,FL,34
90012,Unassigned,Florida,0,0,2021-01-30,3331,FL,0
12125,Union,Florida,30.04412971,-82.37497443,2021-01-30,1660,FL,70
12127,Volusia,Florida,29.05858895,-81.18263252,2021-01-30,30750,FL,534
12129,Wakulla,Florida,30.16548905,-84.39895211,2021-01-30,2943,FL,41
12131,Walton,Florida,30.64204028,-86.16935664,2021-01-30,6277,FL,67
12133,Washington,Florida,30.61359259,-85.66002461,2021-01-30,2446,FL,32
13001,Appling,Georgia,31.74847232,-82.28909114,2021-01-30,2004,GA,53
13003,Atkinson,Georgia,31.29633502,-82.87545866,2021-01-30,937,GA,14
13005,Bacon,Georgia,31.55456473,-82.45936528,2021-01-30,1309,GA,30
13007,Baker,Georgia,31.32669878,-84.44218806,2021-01-30,208,GA,6
13009,Baldwin,Georgia,33.06882326,-83.24701748,2021-01-30,3944,GA,94
13011,Banks,Georgia,34.35607081,-83.49644388,2021-01-30,1548,GA,28
13013,Barrow,Georgia,33.99148694,-83.71436292,2021-01-30,8016,GA,94
13015,Bartow,Georgia,34.23732119,-84.83887523,2021-01-30,11195,GA,167
13017,Ben Hill,Georgia,31.76095874,-83.22145359,2021-01-30,1958,GA,66
13019,Berrien,Georgia,31.27590016,-83.2252992,2021-01-30,1524,GA,35
13021,Bibb,Georgia,32.80904227,-83.70489165,2021-01-30,13242,GA,326
13023,Bleckley,Georgia,32.43829035,-83.33035166,2021-01-30,1311,GA,43
13025,Brantley,Georgia,31.19576557,-81.97743999,2021-01-30,1374,GA,25
13027,Brooks,Georgia,30.83922642,-83.58303423,2021-01-30,1176,GA,38
13029,Bryan,Georgia,32.00979311,-81.44002948,2021-01-30,2697,GA,26
13031,Bulloch,Georgia,32.39577406,-81.74811421,2021-01-30,5718,GA,78
13033,Burke,Georgia,33.05917989,-81.99928721,2021-01-30,2166,GA,37
13035,Butts,Georgia,33.2830945,-83.9543504,2021-01-30,2351,GA,60
13037,Calhoun,Georgia,31.53169785,-84.62725131,2021-01-30,533,GA,12
13039,Camden,Georgia,30.92951916,-81.66601818,2021-01-30,3282,GA,25
13043,Candler,Georgia,32.40209349,-82.07702563,2021-01-30,869,GA,42
13045,Carroll,Georgia,33.58138199,-85.07976677,2021-01-30,9581,GA,174
13047,Catoosa,Georgia,34.89872298,-85.13757014,2021-01-30,4791,GA,53
13049,Charlton,Georgia,30.78371028,-82.13951596,2021-01-30,1227,GA,23
13051,Chatham,Georgia,32.00043026,-81.12489526,2021-01-30,18177,GA,301
13053,Chattahoochee,Georgia,32.34341231,-84.78809239,2021-01-30,2673,GA,3
13055,Chattooga,Georgia,34.47197698,-85.34535662,2021-01-30,2369,GA,58
13057,Cherokee,Georgia,34.24393976,-84.47431861,2021-01-30,24096,GA,209
13059,Clarke,Georgia,33.95436462,-83.37124007,2021-01-30,13011,GA,92
13061,Clay,Georgia,31.62221166,-84.97713865,2021-01-30,219,GA,3
13063,Clayton,Georgia,33.54187245,-84.35594188,2021-01-30,19589,GA,309
13065,Clinch,Georgia,30.91395822,-82.70432472,2021-01-30,849,GA,19
13067,Cobb,Georgia,33.94243204,-84.5761255,2021-01-30,62440,GA,746
13069,Coffee,Georgia,31.54892966,-82.8549206,2021-01-30,4897,GA,123
13071,Colquitt,Georgia,31.18810588,-83.7677946,2021-01-30,4049,GA,75
13073,Columbia,Georgia,33.54534185,-82.263524,2021-01-30,14108,GA,147
13075,Cook,Georgia,31.16068491,-83.42947229,2021-01-30,1586,GA,35
13077,Coweta,Georgia,33.35334302,-84.76129976,2021-01-30,11336,GA,116
13079,Crawford,Georgia,32.71391813,-83.98061238,2021-01-30,561,GA,12
13081,Crisp,Georgia,31.92289565,-83.76811843,2021-01-30,1804,GA,52
13083,Dade,Georgia,34.8549167,-85.50490424,2021-01-30,1089,GA,9
13085,Dawson,Georgia,34.44244079,-84.16964071,2021-01-30,2522,GA,25
13089,DeKalb,Georgia,33.76944049,-84.22396017,2021-01-30,51063,GA,655
13087,Decatur,Georgia,30.87967778,-84.57619536,2021-01-30,2552,GA,57
13091,Dodge,Georgia,32.17265114,-83.16948926,2021-01-30,1956,GA,87
13093,Dooly,Georgia,32.15630737,-83.79746561,2021-01-30,910,GA,34
13095,Dougherty,Georgia,31.53328528,-84.21722377,2021-01-30,6594,GA,249
13097,Douglas,Georgia,33.70291126,-84.77026156,2021-01-30,11659,GA,151
13099,Early,Georgia,31.32155345,-84.90255207,2021-01-30,1041,GA,44
13101,Echols,Georgia,30.71101099,-82.89687287,2021-01-30,427,GA,6
13103,Effingham,Georgia,32.36616021,-81.34280942,2021-01-30,3580,GA,48
13105,Elbert,Georgia,34.11302332,-82.83936148,2021-01-30,2080,GA,45
13107,Emanuel,Georgia,32.59221302,-82.30239915,2021-01-30,2306,GA,68
13109,Evans,Georgia,32.15328841,-81.8870105,2021-01-30,835,GA,17
13111,Fannin,Georgia,34.86430205,-84.316964,2021-01-30,1963,GA,53
13113,Fayette,Georgia,33.41357794,-84.49089434,2021-01-30,6747,GA,111
13115,Floyd,Georgia,34.26268279,-85.21577392,2021-01-30,9884,GA,161
13117,Forsyth,Georgia,34.22604035,-84.1231513,2021-01-30,16532,GA,111
13119,Franklin,Georgia,34.37525597,-83.23159927,2021-01-30,2322,GA,34
13121,Fulton,Georgia,33.79216944,-84.46319413,2021-01-30,77020,GA,953
13123,Gilmer,Georgia,34.69316688,-84.45802506,2021-01-30,2488,GA,50
13125,Glascock,Georgia,33.22879932,-82.61297636,2021-01-30,228,GA,10
13127,Glynn,Georgia,31.23279254,-81.53811412,2021-01-30,6768,GA,152
13129,Gordon,Georgia,34.50487351,-84.87296253,2021-01-30,6352,GA,83
13131,Grady,Georgia,30.87454847,-84.23418364,2021-01-30,1871,GA,46
13133,Greene,Georgia,33.5769205,-83.17139104,2021-01-30,1525,GA,37
13135,Gwinnett,Georgia,33.96044201,-84.02137802,2021-01-30,83090,GA,768
13137,Habersham,Georgia,34.63331566,-83.53094677,2021-01-30,4488,GA,122
13139,Hall,Georgia,34.32207823,-83.81896936,2021-01-30,23868,GA,327
13141,Hancock,Georgia,33.2721566,-82.99766919,2021-01-30,821,GA,54
13143,Haralson,Georgia,33.79602175,-85.21005667,2021-01-30,2261,GA,64
13145,Harris,Georgia,32.73709786,-84.90538572,2021-01-30,2072,GA,37
13147,Hart,Georgia,34.34626973,-82.96567682,2021-01-30,2053,GA,45
13149,Heard,Georgia,33.29686567,-85.12886832,2021-01-30,723,GA,14
13151,Henry,Georgia,33.4533428,-84.1481466,2021-01-30,19032,GA,217
13153,Houston,Georgia,32.45802497,-83.66879087,2021-01-30,11944,GA,181
13155,Irwin,Georgia,31.60213036,-83.27501387,2021-01-30,839,GA,24
13157,Jackson,Georgia,34.13794553,-83.56814788,2021-01-30,8236,GA,106
13159,Jasper,Georgia,33.31535543,-83.68844964,2021-01-30,1167,GA,27
13161,Jeff Davis,Georgia,31.80405727,-82.6372487,2021-01-30,1593,GA,38
13163,Jefferson,Georgia,33.05867328,-82.41609057,2021-01-30,1701,GA,49
13165,Jenkins,Georgia,32.79248718,-81.96040187,2021-01-30,770,GA,37
13167,Johnson,Georgia,32.70211082,-82.66166794,2021-01-30,1003,GA,38
13169,Jones,Georgia,33.02512137,-83.56019163,2021-01-30,1651,GA,31
13171,Lamar,Georgia,33.07841647,-84.14263877,2021-01-30,1711,GA,41
13173,Lanier,Georgia,31.0382857,-83.06472457,2021-01-30,682,GA,10
13175,Laurens,Georgia,32.46325233,-82.92221316,2021-01-30,5021,GA,141
13177,Lee,Georgia,31.7793306,-84.14324253,2021-01-30,2379,GA,40
13179,Liberty,Georgia,31.82588896,-81.49251135,2021-01-30,2717,GA,40
13181,Lincoln,Georgia,33.79201475,-82.45024131,2021-01-30,659,GA,17
13183,Long,Georgia,31.75218791,-81.74952375,2021-01-30,707,GA,9
13185,Lowndes,Georgia,30.83568832,-83.27056716,2021-01-30,10703,GA,164
13187,Lumpkin,Georgia,34.57286511,-84.00425681,2021-01-30,2596,GA,40
13193,Macon,Georgia,32.35207048,-84.04234127,2021-01-30,685,GA,19
13195,Madison,Georgia,34.12920917,-83.21218732,2021-01-30,2717,GA,37
13197,Marion,Georgia,32.3483402,-84.52733571,2021-01-30,460,GA,11
13189,McDuffie,Georgia,33.47851918,-82.48252774,2021-01-30,2066,GA,35
13191,McIntosh,Georgia,31.49683595,-81.40163426,2021-01-30,650,GA,12
13199,Meriwether,Georgia,33.04163534,-84.68859732,2021-01-30,1635,GA,33
13201,Miller,Georgia,31.16568912,-84.73151117,2021-01-30,712,GA,7
13205,Mitchell,Georgia,31.22483255,-84.19381821,2021-01-30,1834,GA,71
13207,Monroe,Georgia,33.014289,-83.92097166,2021-01-30,2122,GA,82
13209,Montgomery,Georgia,32.17201038,-82.53527476,2021-01-30,806,GA,19
13211,Morgan,Georgia,33.59232073,-83.49129491,2021-01-30,1588,GA,12
13213,Murray,Georgia,34.78897608,-84.74993177,2021-01-30,4079,GA,53
13215,Muscogee,Georgia,32.50931999,-84.87142262,2021-01-30,13050,GA,263
13217,Newton,Georgia,33.55514538,-83.8454714,2021-01-30,8296,GA,164
13219,Oconee,Georgia,33.83749973,-83.43679568,2021-01-30,3272,GA,49
13221,Oglethorpe,Georgia,33.8786296,-83.08278123,2021-01-30,1276,GA,17
80013,Out of GA,Georgia,0,0,2021-01-30,28313,GA,420
13223,Paulding,Georgia,33.91969522,-84.86848792,2021-01-30,12649,GA,148
13225,Peach,Georgia,32.56934316,-83.82937,2021-01-30,2153,GA,39
13227,Pickens,Georgia,34.46589159,-84.46406611,2021-01-30,2720,GA,50
13229,Pierce,Georgia,31.35928155,-82.21598442,2021-01-30,2177,GA,42
13231,Pike,Georgia,33.09310242,-84.38790389,2021-01-30,1830,GA,28
13233,Polk,Georgia,34.00267074,-85.18677781,2021-01-30,4755,GA,65
13235,Pulaski,Georgia,32.23334561,-83.4754996,2021-01-30,805,GA,33
13237,Putnam,Georgia,33.32056115,-83.37552891,2021-01-30,1773,GA,39
13239,Quitman,Georgia,31.86728114,-85.01773177,2021-01-30,147,GA,1
13241,Rabun,Georgia,34.88389445,-83.40304637,2021-01-30,1469,GA,35
13243,Randolph,Georgia,31.76622818,-84.75732369,2021-01-30,548,GA,31
13245,Richmond,Georgia,33.35777107,-82.07026432,2021-01-30,20409,GA,345
13247,Rockdale,Georgia,33.65145002,-84.02202167,2021-01-30,5695,GA,112
13249,Schley,Georgia,32.2654021,-84.31258912,2021-01-30,275,GA,2
13251,Screven,Georgia,32.74976524,-81.60779441,2021-01-30,806,GA,19
13253,Seminole,Georgia,30.93464824,-84.86823924,2021-01-30,847,GA,15
13255,Spalding,Georgia,33.26310031,-84.28013991,2021-01-30,4977,GA,129
13257,Stephens,Georgia,34.55151201,-83.29405315,2021-01-30,2769,GA,66
13259,Stewart,Georgia,32.07996777,-84.83208037,2021-01-30,761,GA,18
13261,Sumter,Georgia,32.03650571,-84.19821492,2021-01-30,2226,GA,85
13263,Talbot,Georgia,32.69642758,-84.53351366,2021-01-30,407,GA,13
13265,Taliaferro,Georgia,33.56543317,-82.88136816,2021-01-30,104,GA,0
13267,Tattnall,Georgia,32.04785085,-82.05539188,2021-01-30,1993,GA,44
13269,Taylor,Georgia,32.55792548,-84.25077141,2021-01-30,686,GA,21
13271,Telfair,Georgia,31.92829517,-82.93491155,2021-01-30,1117,GA,45
13273,Terrell,Georgia,31.77527543,-84.44069698,2021-01-30,694,GA,37
13275,Thomas,Georgia,30.86392347,-83.91847289,2021-01-30,3940,GA,99
13277,Tift,Georgia,31.45743864,-83.5236119,2021-01-30,4465,GA,106
13279,Toombs,Georgia,32.12059861,-82.32957247,2021-01-30,3005,GA,85
13281,Towns,Georgia,34.91369188,-83.7410746,2021-01-30,987,GA,42
13283,Treutlen,Georgia,32.40422134,-82.56904553,2021-01-30,748,GA,19
13285,Troup,Georgia,33.03349196,-85.02812115,2021-01-30,6494,GA,163
13287,Turner,Georgia,31.71612656,-83.62069378,2021-01-30,904,GA,28
13289,Twiggs,Georgia,32.67435595,-83.43078662,2021-01-30,567,GA,27
90013,Unassigned,Georgia,0,0,2021-01-30,4125,GA,10
13291,Union,Georgia,34.82995757,-83.98967069,2021-01-30,1881,GA,56
13293,Upson,Georgia,32.87920671,-84.30024826,2021-01-30,3005,GA,100
13295,Walker,Georgia,34.73376362,-85.30165174,2021-01-30,5581,GA,72
13297,Walton,Georgia,33.78017694,-83.73552314,2021-01-30,8288,GA,158
13299,Ware,Georgia,31.05449097,-82.42224148,2021-01-30,4285,GA,120
13301,Warren,Georgia,33.41146451,-82.67795848,2021-01-30,456,GA,10
13303,Washington,Georgia,32.96711864,-82.79357039,2021-01-30,1803,GA,54
13305,Wayne,Georgia,31.5521809,-81.91894878,2021-01-30,2976,GA,63
13307,Webster,Georgia,32.04066113,-84.54742852,2021-01-30,119,GA,3
13309,Wheeler,Georgia,32.12009104,-82.72574721,2021-01-30,574,GA,21
13311,White,Georgia,34.64624278,-83.74905525,2021-01-30,2798,GA,59
13313,Whitfield,Georgia,34.80987459,-84.96093476,2021-01-30,14939,GA,174
13315,Wilcox,Georgia,31.97496928,-83.43438555,2021-01-30,716,GA,42
13317,Wilkes,Georgia,33.78290391,-82.74286107,2021-01-30,907,GA,20
13319,Wilkinson,Georgia,32.80291082,-83.17140684,2021-01-30,804,GA,21
13321,Worth,Georgia,31.55162306,-83.85090513,2021-01-30,1612,GA,52
99999,NA,Grand Princess,0,0,2021-01-30,103,NA,3
66,NA,Guam,13.4443,144.7937,2021-01-30,7579,NA,129
15001,Hawaii,Hawaii,19.60121157,-155.5210167,2021-01-30,2180,HI,53
15003,Honolulu,Hawaii,21.45803166,-157.9712182,2021-01-30,21039,HI,325
15005,Kalawao,Hawaii,21.17882515,-156.9583592,2021-01-30,0,HI,0
15007,Kauai,Hawaii,22.03935037,-159.5966786,2021-01-30,180,HI,1
15009,Maui,Hawaii,20.86399628,-156.5689097,2021-01-30,2309,HI,25
80015,Out of HI,Hawaii,0,0,2021-01-30,286,HI,2
90015,Unassigned,Hawaii,0,0,2021-01-30,0,HI,0
16001,Ada,Idaho,43.4526575,-116.2415516,2021-01-30,44483,ID,409
16003,Adams,Idaho,44.89333571,-116.4545247,2021-01-30,310,ID,3
16005,Bannock,Idaho,42.67002716,-112.2233311,2021-01-30,7364,ID,84
16007,Bear Lake,Idaho,42.28269683,-111.3289238,2021-01-30,328,ID,2
16009,Benewah,Idaho,47.21754179,-116.6586851,2021-01-30,534,ID,6
16011,Bingham,Idaho,43.2167288,-112.3978437,2021-01-30,4057,ID,58
16013,Blaine,Idaho,43.4085812,-113.9752658,2021-01-30,1946,ID,14
16015,Boise,Idaho,43.98829931,-115.7309284,2021-01-30,288,ID,2
16017,Bonner,Idaho,48.29996017,-116.6017932,2021-01-30,2691,ID,27
16019,Bonneville,Idaho,43.38713372,-111.6161537,2021-01-30,11456,ID,136
16021,Boundary,Idaho,48.76684761,-116.4630179,2021-01-30,729,ID,10
16023,Butte,Idaho,43.72592209,-113.1735463,2021-01-30,185,ID,1
16025,Camas,Idaho,43.46665742,-114.8065892,2021-01-30,65,ID,0
16027,Canyon,Idaho,43.61970148,-116.7095499,2021-01-30,23743,ID,256
16029,Caribou,Idaho,42.77149116,-111.5597683,2021-01-30,610,ID,11
16031,Cassia,Idaho,42.28347888,-113.6012409,2021-01-30,2764,ID,22
16033,Clark,Idaho,44.28496071,-112.3505704,2021-01-30,54,ID,0
16035,Clearwater,Idaho,46.67459924,-115.6622393,2021-01-30,974,ID,12
16037,Custer,Idaho,44.24186819,-114.2855494,2021-01-30,227,ID,3
16039,Elmore,Idaho,43.3507101,-115.4701578,2021-01-30,1511,ID,10
16041,Franklin,Idaho,42.18332217,-111.8149666,2021-01-30,1015,ID,12
16043,Fremont,Idaho,44.22800938,-111.4809943,2021-01-30,949,ID,14
16045,Gem,Idaho,44.06482372,-116.398376,2021-01-30,1644,ID,27
16047,Gooding,Idaho,42.96927962,-114.8108306,2021-01-30,1238,ID,23
16049,Idaho,Idaho,45.84721541,-115.4634436,2021-01-30,1143,ID,17
16051,Jefferson,Idaho,43.82078483,-112.3131749,2021-01-30,2263,ID,20
16053,Jerome,Idaho,42.68891267,-114.2655033,2021-01-30,2421,ID,18
16055,Kootenai,Idaho,47.67282258,-116.7020872,2021-01-30,15710,ID,168
16057,Latah,Idaho,46.81587887,-116.7113698,2021-01-30,2501,ID,6
16059,Lemhi,Idaho,44.9438088,-113.9309747,2021-01-30,475,ID,9
16061,Lewis,Idaho,46.23315327,-116.434146,2021-01-30,368,ID,6
16063,Lincoln,Idaho,43.0012336,-114.1358773,2021-01-30,476,ID,10
16065,Madison,Idaho,43.78141028,-111.6538474,2021-01-30,5862,ID,21
16067,Minidoka,Idaho,42.85518524,-113.6357257,2021-01-30,2229,ID,26
16069,Nez Perce,Idaho,46.32638236,-116.7500975,2021-01-30,3289,ID,45
16071,Oneida,Idaho,42.1949428,-112.5407838,2021-01-30,311,ID,3
80016,Out of ID,Idaho,0,0,2021-01-30,0,ID,0
16073,Owyhee,Idaho,42.58016894,-116.1693871,2021-01-30,972,ID,24
16075,Payette,Idaho,44.00545243,-116.7647695,2021-01-30,2314,ID,27
16077,Power,Idaho,42.69254894,-112.8395742,2021-01-30,601,ID,6
16079,Shoshone,Idaho,47.35364087,-115.8916749,2021-01-30,964,ID,30
16081,Teton,Idaho,43.75303583,-111.2056773,2021-01-30,997,ID,4
16083,Twin Falls,Idaho,42.35440512,-114.6685381,2021-01-30,8750,ID,119
90016,Unassigned,Idaho,0,0,2021-01-30,0,ID,0
16085,Valley,Idaho,44.76728382,-115.5676773,2021-01-30,715,ID,4
16087,Washington,Idaho,44.45275475,-116.7847688,2021-01-30,1157,ID,20
17001,Adams,Illinois,39.98815591,-91.18786813,2021-01-30,7684,IL,136
17003,Alexander,Illinois,37.18049267,-89.32910838,2021-01-30,412,IL,8
17005,Bond,Illinois,38.88829622,-89.43534887,2021-01-30,1806,IL,27
17007,Boone,Illinois,42.32359279,-88.82345779,2021-01-30,5704,IL,81
17009,Brown,Illinois,39.96209138,-90.75068024,2021-01-30,636,IL,12
17011,Bureau,Illinois,41.40385234,-89.5283051,2021-01-30,3106,IL,85
17013,Calhoun,Illinois,39.16840183,-90.66330078,2021-01-30,453,IL,5
17015,Carroll,Illinois,42.06823429,-89.93395545,2021-01-30,1500,IL,33
17017,Cass,Illinois,39.96991073,-90.24734436,2021-01-30,1826,IL,31
17019,Champaign,Illinois,40.13919438,-88.20046615,2021-01-30,16244,IL,109
17021,Christian,Illinois,39.54581621,-89.27780482,2021-01-30,3106,IL,79
17023,Clark,Illinois,39.33425789,-87.78705622,2021-01-30,1580,IL,36
17025,Clay,Illinois,38.75388572,-88.48914513,2021-01-30,1370,IL,41
17027,Clinton,Illinois,38.60704876,-89.42385254,2021-01-30,5289,IL,91
17029,Coles,Illinois,39.51949084,-88.22358557,2021-01-30,4871,IL,88
17031,Cook,Illinois,41.84144849,-87.81658794,2021-01-30,451581,IL,9374
17033,Crawford,Illinois,39.0032229,-87.75954624,2021-01-30,1882,IL,37
17035,Cumberland,Illinois,39.27432424,-88.2401158,2021-01-30,1125,IL,27
17039,De Witt,Illinois,40.17514519,-88.90959682,2021-01-30,1204,IL,29
17037,DeKalb,Illinois,41.89373302,-88.76958483,2021-01-30,7805,IL,105
17041,Douglas,Illinois,39.76768052,-88.21854195,2021-01-30,2105,IL,35
17043,DuPage,Illinois,41.85116968,-88.08642662,2021-01-30,72068,IL,1191
17045,Edgar,Illinois,39.6809186,-87.74759563,2021-01-30,1506,IL,53
17047,Edwards,Illinois,38.41353228,-88.05720863,2021-01-30,489,IL,9
17049,Effingham,Illinois,39.05935711,-88.58969584,2021-01-30,4376,IL,75
17051,Fayette,Illinois,39.00072038,-89.02452658,2021-01-30,3002,IL,54
17053,Ford,Illinois,40.59706922,-88.22350769,2021-01-30,1430,IL,51
17055,Franklin,Illinois,37.99189086,-88.92567818,2021-01-30,3983,IL,73
17057,Fulton,Illinois,40.47289135,-90.20862357,2021-01-30,2678,IL,51
17059,Gallatin,Illinois,37.76430935,-88.22953869,2021-01-30,409,IL,4
17061,Greene,Illinois,39.35907414,-90.388865,2021-01-30,1298,IL,43
17063,Grundy,Illinois,41.28569601,-88.41905692,2021-01-30,4632,IL,55
17065,Hamilton,Illinois,38.08163641,-88.53883373,2021-01-30,746,IL,17
17067,Hancock,Illinois,40.40423981,-91.16313899,2021-01-30,1587,IL,37
17069,Hardin,Illinois,37.51810645,-88.26873022,2021-01-30,316,IL,10
17071,Henderson,Illinois,40.81908672,-90.92491462,2021-01-30,475,IL,17
17073,Henry,Illinois,41.3533994,-90.13296166,2021-01-30,4167,IL,81
17075,Iroquois,Illinois,40.74717633,-87.82466784,2021-01-30,2667,IL,59
17077,Jackson,Illinois,37.78595185,-89.38232563,2021-01-30,4371,IL,70
17079,Jasper,Illinois,39.01054275,-88.15437049,2021-01-30,1077,IL,16
17081,Jefferson,Illinois,38.29980057,-88.9240025,2021-01-30,3660,IL,108
17083,Jersey,Illinois,39.08869046,-90.35393073,2021-01-30,2348,IL,63
17085,Jo Daviess,Illinois,42.36542373,-90.21094405,2021-01-30,1547,IL,25
17087,Johnson,Illinois,37.45939802,-88.88165419,2021-01-30,1289,IL,15
17089,Kane,Illinois,41.93842729,-88.42861412,2021-01-30,47991,IL,729
17091,Kankakee,Illinois,41.13746989,-87.86205334,2021-01-30,11842,IL,189
17093,Kendall,Illinois,41.59081014,-88.42869583,2021-01-30,10267,IL,85
17095,Knox,Illinois,40.93148779,-90.2133034,2021-01-30,4765,IL,149
17099,LaSalle,Illinois,41.3442613,-88.88633881,2021-01-30,10016,IL,255
17097,Lake,Illinois,42.3224907,-88.00367925,2021-01-30,55663,IL,941
17101,Lawrence,Illinois,38.71987914,-87.72884035,2021-01-30,2222,IL,31
17103,Lee,Illinois,41.74583951,-89.29977132,2021-01-30,3189,IL,78
17105,Livingston,Illinois,40.89188292,-88.55784752,2021-01-30,3899,IL,74
17107,Logan,Illinois,40.12581572,-89.36638784,2021-01-30,3210,IL,63
17115,Macon,Illinois,39.86064913,-88.96342505,2021-01-30,9073,IL,183
17117,Macoupin,Illinois,39.26119767,-89.92424028,2021-01-30,4112,IL,100
17119,Madison,Illinois,38.83042506,-89.90422563,2021-01-30,25953,IL,499
17121,Marion,Illinois,38.64963204,-88.91899208,2021-01-30,4165,IL,113
17123,Marshall,Illinois,41.0327901,-89.34510444,2021-01-30,738,IL,15
17125,Mason,Illinois,40.23917274,-89.91824452,2021-01-30,1214,IL,41
17127,Massac,Illinois,37.22078441,-88.71036614,2021-01-30,1105,IL,33
17109,McDonough,Illinois,40.45674722,-90.67775541,2021-01-30,2218,IL,51
17111,McHenry,Illinois,42.32451172,-88.45248227,2021-01-30,22626,IL,268
17113,McLean,Illinois,40.48996987,-88.84621113,2021-01-30,13812,IL,178
17129,Menard,Illinois,40.02742725,-89.80246001,2021-01-30,939,IL,10
17131,Mercer,Illinois,41.20596782,-90.74290052,2021-01-30,1204,IL,31
17133,Monroe,Illinois,38.27594376,-90.17761038,2021-01-30,3789,IL,72
17135,Montgomery,Illinois,39.23198845,-89.47809254,2021-01-30,3240,IL,62
17137,Morgan,Illinois,39.71654544,-90.20255104,2021-01-30,3352,IL,93
17139,Moultrie,Illinois,39.64187451,-88.62099969,2021-01-30,1427,IL,28
17141,Ogle,Illinois,42.04165196,-89.32184679,2021-01-30,4789,IL,75
80017,Out of IL,Illinois,0,0,2021-01-30,2,IL,0
17143,Peoria,Illinois,40.78702156,-89.76078901,2021-01-30,15736,IL,256
17145,Perry,Illinois,38.08510853,-89.36856219,2021-01-30,2858,IL,64
17147,Piatt,Illinois,40.01360584,-88.59319339,2021-01-30,1221,IL,19
17149,Pike,Illinois,39.62265059,-90.8877017,2021-01-30,1634,IL,50
17151,Pope,Illinois,37.41391284,-88.56152109,2021-01-30,264,IL,3
17153,Pulaski,Illinois,37.22631423,-89.13085001,2021-01-30,639,IL,3
17155,Putnam,Illinois,41.2013541,-89.2869272,2021-01-30,373,IL,3
17157,Randolph,Illinois,38.05095369,-89.82512254,2021-01-30,3847,IL,79
17159,Richland,Illinois,38.71240969,-88.08475366,2021-01-30,1594,IL,46
17161,Rock Island,Illinois,41.46613806,-90.57042164,2021-01-30,12360,IL,312
17165,Saline,Illinois,37.75332999,-88.54119706,2021-01-30,2124,IL,58
17167,Sangamon,Illinois,39.75836914,-89.65872023,2021-01-30,15148,IL,251
17169,Schuyler,Illinois,40.1571798,-90.61114163,2021-01-30,658,IL,17
17171,Scott,Illinois,39.6429169,-90.47814431,2021-01-30,418,IL,1
17173,Shelby,Illinois,39.39133527,-88.80611122,2021-01-30,2047,IL,36
17163,St. Clair,Illinois,38.46996033,-89.93063427,2021-01-30,23525,IL,469
17175,Stark,Illinois,41.09309773,-89.79745866,2021-01-30,502,IL,21
17177,Stephenson,Illinois,42.35129217,-89.662598,2021-01-30,3727,IL,82
17179,Tazewell,Illinois,40.50716185,-89.51404662,2021-01-30,12574,IL,258
90017,Unassigned,Illinois,0,0,2021-01-30,111,IL,0
17181,Union,Illinois,37.47119609,-89.25548938,2021-01-30,2085,IL,34
17183,Vermilion,Illinois,40.18417171,-87.73384359,2021-01-30,7967,IL,120
17185,Wabash,Illinois,38.44272901,-87.84922065,2021-01-30,1243,IL,15
17187,Warren,Illinois,40.84925021,-90.6147432,2021-01-30,1613,IL,46
17189,Washington,Illinois,38.35309213,-89.40982703,2021-01-30,1519,IL,26
17191,Wayne,Illinois,38.42955355,-88.42586459,2021-01-30,1569,IL,44
17193,White,Illinois,38.08706198,-88.17657461,2021-01-30,1455,IL,33
17195,Whiteside,Illinois,41.75509713,-89.91556058,2021-01-30,5537,IL,178
17197,Will,Illinois,41.44619267,-87.97862712,2021-01-30,60910,IL,908
17199,Williamson,Illinois,37.73033511,-88.92994027,2021-01-30,6487,IL,123
17201,Winnebago,Illinois,42.33641854,-89.16085327,2021-01-30,27133,IL,429
17203,Woodford,Illinois,40.78579374,-89.20973757,2021-01-30,3418,IL,70
18001,Adams,Indiana,40.7457653,-84.93671406,2021-01-30,3084,IN,37
18003,Allen,Indiana,41.09194313,-85.06800636,2021-01-30,33616,IN,566
18005,Bartholomew,Indiana,39.20744865,-85.89558181,2021-01-30,6798,IN,102
18007,Benton,Indiana,40.60626947,-87.31093999,2021-01-30,886,IN,10
18009,Blackford,Indiana,40.47388153,-85.32499702,2021-01-30,1138,IN,23
18011,Boone,Indiana,40.0509304,-86.46841646,2021-01-30,5686,IN,69
18013,Brown,Indiana,39.19605589,-86.22868909,2021-01-30,903,IN,35
18015,Carroll,Indiana,40.5807832,-86.56198812,2021-01-30,1654,IN,16
18017,Cass,Indiana,40.76135835,-86.34830753,2021-01-30,5024,IN,64
18019,Clark,Indiana,38.48015445,-85.70510334,2021-01-30,11091,IN,149
18021,Clay,Indiana,39.39561833,-87.11723506,2021-01-30,2280,IN,32
18023,Clinton,Indiana,40.30319754,-86.47277257,2021-01-30,3804,IN,45
18025,Crawford,Indiana,38.28814402,-86.44518825,2021-01-30,827,IN,9
18027,Daviess,Indiana,38.70186039,-87.07185406,2021-01-30,2761,IN,76
18033,DeKalb,Indiana,41.39804622,-84.99906934,2021-01-30,3581,IN,65
18029,Dearborn,Indiana,39.14647946,-84.97333539,2021-01-30,5005,IN,47
18031,Decatur,Indiana,39.30712658,-85.50087166,2021-01-30,2538,IN,83
18035,Delaware,Indiana,40.22787247,-85.39732772,2021-01-30,9348,IN,136
18037,Dubois,Indiana,38.36597551,-86.8792417,2021-01-30,5653,IN,82
18039,Elkhart,Indiana,41.59761169,-85.85875695,2021-01-30,24660,IN,348
18041,Fayette,Indiana,39.63684962,-85.17797541,2021-01-30,2546,IN,50
18043,Floyd,Indiana,38.32117957,-85.90385377,2021-01-30,6645,IN,118
18045,Fountain,Indiana,40.12361933,-87.24217689,2021-01-30,1894,IN,27
18047,Franklin,Indiana,39.4142482,-85.06062647,2021-01-30,1532,IN,32
18049,Fulton,Indiana,41.0469907,-86.26252745,2021-01-30,1681,IN,30
18051,Gibson,Indiana,38.30393723,-87.58054938,2021-01-30,3835,IN,60
18053,Grant,Indiana,40.51587228,-85.65468702,2021-01-30,6130,IN,122
18055,Greene,Indiana,39.03630547,-86.96223202,2021-01-30,2471,IN,64
18057,Hamilton,Indiana,40.07306535,-86.05244729,2021-01-30,30190,IN,323
18059,Hancock,Indiana,39.82304555,-85.77566351,2021-01-30,6915,IN,108
18061,Harrison,Indiana,38.19467379,-86.10948271,2021-01-30,3644,IN,48
18063,Hendricks,Indiana,39.76719009,-86.51037283,2021-01-30,14870,IN,260
18065,Henry,Indiana,39.93029017,-85.39625719,2021-01-30,5192,IN,67
18067,Howard,Indiana,40.48527731,-86.11351892,2021-01-30,8539,IN,153
18069,Huntington,Indiana,40.82907273,-85.48822092,2021-01-30,3052,IN,63
18071,Jackson,Indiana,38.9091582,-86.03851889,2021-01-30,4366,IN,48
18073,Jasper,Indiana,41.02078733,-87.11553319,2021-01-30,2980,IN,35
18075,Jay,Indiana,40.43781032,-85.00576229,2021-01-30,1714,IN,23
18077,Jefferson,Indiana,38.78576239,-85.43633383,2021-01-30,2729,IN,38
18079,Jennings,Indiana,38.99588883,-85.62710784,2021-01-30,2040,IN,38
18081,Johnson,Indiana,39.48994426,-86.10149107,2021-01-30,15513,IN,298
18083,Knox,Indiana,38.68861576,-87.4194665,2021-01-30,3411,IN,39
18085,Kosciusko,Indiana,41.24521668,-85.86312322,2021-01-30,8191,IN,85
18087,LaGrange,Indiana,41.64232188,-85.42674232,2021-01-30,2340,IN,63
18091,LaPorte,Indiana,41.54366008,-86.74072188,2021-01-30,9346,IN,170
18089,Lake,Indiana,41.41874274,-87.38277575,2021-01-30,46348,IN,699
18093,Lawrence,Indiana,38.84112637,-86.48361629,2021-01-30,4008,IN,81
18095,Madison,Indiana,40.16143691,-85.71964711,2021-01-30,11243,IN,230
18097,Marion,Indiana,39.78163624,-86.13826325,2021-01-30,86214,IN,1359
18099,Marshall,Indiana,41.32467367,-86.26185087,2021-01-30,5163,IN,84
18101,Martin,Indiana,38.7099921,-86.80373186,2021-01-30,765,IN,13
18103,Miami,Indiana,40.76940965,-86.04525048,2021-01-30,3318,IN,46
18105,Monroe,Indiana,39.16130004,-86.52414358,2021-01-30,9655,IN,115
18107,Montgomery,Indiana,40.04034823,-86.89335024,2021-01-30,3572,IN,56
18109,Morgan,Indiana,39.47899078,-86.44573375,2021-01-30,5657,IN,100
18111,Newton,Indiana,40.95610449,-87.39635768,2021-01-30,942,IN,21
18113,Noble,Indiana,41.39672484,-85.41966713,2021-01-30,4820,IN,59
18115,Ohio,Indiana,38.955305,-84.96515993,2021-01-30,504,IN,7
18117,Orange,Indiana,38.5411892,-86.49523093,2021-01-30,1655,IN,35
80018,Out of IN,Indiana,0,0,2021-01-30,0,IN,0
18119,Owen,Indiana,39.31145587,-86.83900724,2021-01-30,1727,IN,38
18121,Parke,Indiana,39.77202286,-87.20375833,2021-01-30,1335,IN,9
18123,Perry,Indiana,38.07809328,-86.63741946,2021-01-30,1631,IN,33
18125,Pike,Indiana,38.40112197,-87.23574907,2021-01-30,1222,IN,26
18127,Porter,Indiana,41.45986947,-87.06848888,2021-01-30,15150,IN,176
18129,Posey,Indiana,38.02097333,-87.86480429,2021-01-30,2457,IN,28
18131,Pulaski,Indiana,41.04166107,-86.69890683,2021-01-30,998,IN,38
18133,Putnam,Indiana,39.66437981,-86.84517605,2021-01-30,3037,IN,54
18135,Randolph,Indiana,40.15734772,-85.01139319,2021-01-30,2174,IN,48
18137,Ripley,Indiana,39.10235626,-85.26212744,2021-01-30,3066,IN,47
18139,Rush,Indiana,39.62002287,-85.4655599,2021-01-30,1586,IN,18
18143,Scott,Indiana,38.68672078,-85.74627859,2021-01-30,2312,IN,41
18145,Shelby,Indiana,39.52305623,-85.7915857,2021-01-30,4318,IN,82
18147,Spencer,Indiana,38.01519732,-87.0079644,2021-01-30,2001,IN,25
18141,St. Joseph,Indiana,41.61756781,-86.29040834,2021-01-30,27888,IN,392
18149,Starke,Indiana,41.27890281,-86.64686895,2021-01-30,1798,IN,44
18151,Steuben,Indiana,41.64423868,-85.00101094,2021-01-30,3183,IN,46
18153,Sullivan,Indiana,39.08952258,-87.41414469,2021-01-30,1963,IN,33
18155,Switzerland,Indiana,38.82767338,-85.03022429,2021-01-30,695,IN,5
18157,Tippecanoe,Indiana,40.38872739,-86.89413959,2021-01-30,18455,IN,150
18159,Tipton,Indiana,40.31123252,-86.05234925,2021-01-30,1365,IN,33
90018,Unassigned,Indiana,0,0,2021-01-30,0,IN,375
18161,Union,Indiana,39.62550777,-84.92497066,2021-01-30,635,IN,7
18163,Vanderburgh,Indiana,38.02658833,-87.58763124,2021-01-30,20071,IN,261
18165,Vermillion,Indiana,39.8523352,-87.46160542,2021-01-30,1528,IN,35
18167,Vigo,Indiana,39.42944561,-87.39169027,2021-01-30,10968,IN,188
18169,Wabash,Indiana,40.84704239,-85.79328272,2021-01-30,3122,IN,51
18171,Warren,Indiana,40.34728141,-87.35602659,2021-01-30,703,IN,7
18173,Warrick,Indiana,38.08922676,-87.2716085,2021-01-30,6976,IN,104
18175,Washington,Indiana,38.60219804,-86.1049363,2021-01-30,1933,IN,23
18177,Wayne,Indiana,39.8633444,-85.01044989,2021-01-30,6301,IN,167
18179,Wells,Indiana,40.72934187,-85.22132966,2021-01-30,2395,IN,53
18181,White,Indiana,40.74911165,-86.86492015,2021-01-30,2792,IN,43
18183,Whitley,Indiana,41.13863784,-85.50791236,2021-01-30,3207,IN,26
19001,Adair,Iowa,41.33075609,-94.47105874,2021-01-30,705,IA,24
19003,Adams,Iowa,41.02903567,-94.69932645,2021-01-30,308,IA,3
19005,Allamakee,Iowa,43.28383218,-91.37860922,2021-01-30,1325,IA,32
19007,Appanoose,Iowa,40.74324454,-92.86865906,2021-01-30,1145,IA,41
19009,Audubon,Iowa,41.6844628,-94.90581859,2021-01-30,433,IA,8
19011,Benton,Iowa,42.08011739,-92.06463573,2021-01-30,2175,IA,51
19013,Black Hawk,Iowa,42.4704581,-92.30524729,2021-01-30,14371,IA,248
19015,Boone,Iowa,42.03657094,-93.9313999,2021-01-30,2283,IA,18
19017,Bremer,Iowa,42.77461496,-92.31795937,2021-01-30,2534,IA,48
19019,Buchanan,Iowa,42.4709188,-91.83510825,2021-01-30,1652,IA,24
19021,Buena Vista,Iowa,42.73545875,-95.15100162,2021-01-30,4006,IA,33
19023,Butler,Iowa,42.73172833,-92.79015971,2021-01-30,1536,IA,26
19025,Calhoun,Iowa,42.38521079,-94.64046046,2021-01-30,1248,IA,9
19027,Carroll,Iowa,42.03617207,-94.86032705,2021-01-30,2596,IA,40
19029,Cass,Iowa,41.33149454,-94.92792482,2021-01-30,1180,IA,44
19031,Cedar,Iowa,41.77233777,-91.13246684,2021-01-30,1588,IA,19
19033,Cerro Gordo,Iowa,43.08177563,-93.2612239,2021-01-30,4806,IA,73
19035,Cherokee,Iowa,42.73538914,-95.62389402,2021-01-30,1409,IA,28
19037,Chickasaw,Iowa,43.06001295,-92.31773347,2021-01-30,1150,IA,12
19039,Clarke,Iowa,41.02868181,-93.78499767,2021-01-30,849,IA,9
19041,Clay,Iowa,43.08247182,-95.15096481,2021-01-30,1752,IA,21
19043,Clayton,Iowa,42.84443388,-91.34133693,2021-01-30,1551,IA,49
19045,Clinton,Iowa,41.89981633,-90.53275096,2021-01-30,4692,IA,69
19047,Crawford,Iowa,42.03718237,-95.3819718,2021-01-30,2385,IA,24
19049,Dallas,Iowa,41.68560356,-94.04127625,2021-01-30,9320,IA,74
19051,Davis,Iowa,40.74773536,-92.41005468,2021-01-30,713,IA,22
19053,Decatur,Iowa,40.73742757,-93.78645949,2021-01-30,509,IA,4
19055,Delaware,Iowa,42.47104597,-91.3664492,2021-01-30,1787,IA,36
19057,Des Moines,Iowa,40.92012606,-91.18326592,2021-01-30,4040,IA,44
19059,Dickinson,Iowa,43.37787725,-95.1510206,2021-01-30,1909,IA,29
19061,Dubuque,Iowa,42.46815349,-90.88181925,2021-01-30,11821,IA,166
19063,Emmet,Iowa,43.37782951,-94.67858943,2021-01-30,1111,IA,33
19065,Fayette,Iowa,42.86271799,-91.8441231,2021-01-30,1695,IA,25
19067,Floyd,Iowa,43.0600053,-92.78940097,2021-01-30,1432,IA,37
19069,Franklin,Iowa,42.73270384,-93.26256925,2021-01-30,1056,IA,19
19071,Fremont,Iowa,40.7454272,-95.60129045,2021-01-30,531,IA,8
19073,Greene,Iowa,42.03614551,-94.39658081,2021-01-30,702,IA,7
19075,Grundy,Iowa,42.40183723,-92.78829551,2021-01-30,1241,IA,28
19077,Guthrie,Iowa,41.68378965,-94.50111014,2021-01-30,1054,IA,25
19079,Hamilton,Iowa,42.38382428,-93.70197703,2021-01-30,1645,IA,31
19081,Hancock,Iowa,43.08178477,-93.73454884,2021-01-30,1345,IA,24
19083,Hardin,Iowa,42.38353877,-93.23654611,2021-01-30,1605,IA,33
19085,Harrison,Iowa,41.68330137,-95.81558439,2021-01-30,1610,IA,65
19087,Henry,Iowa,40.98767962,-91.54436349,2021-01-30,2717,IA,33
19089,Howard,Iowa,43.35671042,-92.31702714,2021-01-30,896,IA,19
19091,Humboldt,Iowa,42.7764426,-94.20722537,2021-01-30,1085,IA,20
19093,Ida,Iowa,42.38696136,-95.51355387,2021-01-30,779,IA,30
19095,Iowa,Iowa,41.68630265,-92.0643373,2021-01-30,1309,IA,22
19097,Jackson,Iowa,42.17178824,-90.57354837,2021-01-30,1992,IA,34
19099,Jasper,Iowa,41.68576082,-93.05567785,2021-01-30,3397,IA,63
19101,Jefferson,Iowa,41.03192394,-91.94849466,2021-01-30,1235,IA,28
19103,Johnson,Iowa,41.67169354,-91.58754744,2021-01-30,12457,IA,57
19105,Jones,Iowa,42.12118609,-91.13139641,2021-01-30,2780,IA,51
19107,Keokuk,Iowa,41.33649833,-92.1785067,2021-01-30,868,IA,26
19109,Kossuth,Iowa,43.20405458,-94.20691791,2021-01-30,1854,IA,45
19111,Lee,Iowa,40.64181461,-91.48183025,2021-01-30,3360,IA,35
19113,Linn,Iowa,42.07923082,-91.59809485,2021-01-30,18494,IA,284
19115,Louisa,Iowa,41.21842119,-91.26102611,2021-01-30,1179,IA,31
19117,Lucas,Iowa,41.02958964,-93.32780803,2021-01-30,677,IA,12
19119,Lyon,Iowa,43.38107862,-96.20926845,2021-01-30,1395,IA,34
19121,Madison,Iowa,41.33081904,-94.01554631,2021-01-30,1294,IA,10
19123,Mahaska,Iowa,41.33521503,-92.64083907,2021-01-30,2025,IA,39
19125,Marion,Iowa,41.33445101,-93.09934783,2021-01-30,3169,IA,55
19127,Marshall,Iowa,42.03586837,-92.9990819,2021-01-30,4381,IA,65
19129,Mills,Iowa,41.03299766,-95.61920963,2021-01-30,1401,IA,17
19131,Mitchell,Iowa,43.35638371,-92.78887719,2021-01-30,1179,IA,38
19133,Monona,Iowa,42.05220391,-95.95743843,2021-01-30,720,IA,18
19135,Monroe,Iowa,41.02988815,-92.8690667,2021-01-30,835,IA,20
19137,Montgomery,Iowa,41.03018714,-95.15642896,2021-01-30,920,IA,28
19139,Muscatine,Iowa,41.48370744,-91.1121697,2021-01-30,4005,IA,81
19141,O'Brien,Iowa,43.08310673,-95.62474482,2021-01-30,1724,IA,56
19143,Osceola,Iowa,43.37824276,-95.62422844,2021-01-30,653,IA,12
80019,Out of IA,Iowa,0,0,2021-01-30,0,IA,0
19145,Page,Iowa,40.7393172,-95.1497813,2021-01-30,1513,IA,16
19147,Palo Alto,Iowa,43.08193849,-94.67824621,2021-01-30,934,IA,12
19149,Plymouth,Iowa,42.737633,-96.21366621,2021-01-30,3562,IA,71
19151,Pocahontas,Iowa,42.73420133,-94.67862564,2021-01-30,791,IA,12
19153,Polk,Iowa,41.68679484,-93.57767461,2021-01-30,47914,IA,480
19155,Pottawattamie,Iowa,41.33640314,-95.53907776,2021-01-30,9328,IA,120
19157,Poweshiek,Iowa,41.68625425,-92.53155731,2021-01-30,1386,IA,24
19159,Ringgold,Iowa,40.73518949,-94.24368535,2021-01-30,466,IA,11
19161,Sac,Iowa,42.38624071,-95.10547892,2021-01-30,1142,IA,15
19163,Scott,Iowa,41.63935978,-90.61959493,2021-01-30,16214,IA,178
19165,Shelby,Iowa,41.6850066,-95.31015553,2021-01-30,1100,IA,28
19167,Sioux,Iowa,43.08221074,-96.1767568,2021-01-30,4627,IA,61
19169,Story,Iowa,42.03621213,-93.46499005,2021-01-30,9010,IA,39
19171,Tama,Iowa,42.07991767,-92.53266945,2021-01-30,1938,IA,59
19173,Taylor,Iowa,40.73710579,-94.69778563,2021-01-30,611,IA,11
90019,Unassigned,Iowa,0,0,2021-01-30,1064,IA,0
19175,Union,Iowa,41.0277278,-94.24234847,2021-01-30,1144,IA,25
19177,Van Buren,Iowa,40.75326764,-91.95017958,2021-01-30,512,IA,16
19179,Wapello,Iowa,41.03064984,-92.40954728,2021-01-30,3587,IA,98
19181,Warren,Iowa,41.33559454,-93.56007641,2021-01-30,4745,IA,49
19183,Washington,Iowa,41.33577126,-91.71725711,2021-01-30,2275,IA,33
19185,Wayne,Iowa,40.73969028,-93.32752197,2021-01-30,425,IA,21
19187,Webster,Iowa,42.42853483,-94.17987389,2021-01-30,4770,IA,78
19189,Winnebago,Iowa,43.37751174,-93.73407298,2021-01-30,1245,IA,29
19191,Winneshiek,Iowa,43.29094334,-91.84422722,2021-01-30,1652,IA,23
19193,Woodbury,Iowa,42.38979414,-96.0459439,2021-01-30,13253,IA,186
19195,Worth,Iowa,43.37750768,-93.26087602,2021-01-30,628,IA,4
19197,Wright,Iowa,42.73305373,-93.73515113,2021-01-30,1689,IA,26
20001,Allen,Kansas,37.88582951,-95.30030847,2021-01-30,967,KS,13
20003,Anderson,Kansas,38.21413251,-95.29272815,2021-01-30,758,KS,9
20005,Atchison,Kansas,39.53185661,-95.30870026,2021-01-30,1432,KS,12
20007,Barber,Kansas,37.2288586,-98.68460053,2021-01-30,359,KS,7
20009,Barton,Kansas,38.47889676,-98.75636726,2021-01-30,2496,KS,40
20011,Bourbon,Kansas,37.85508555,-94.84865997,2021-01-30,1211,KS,20
20013,Brown,Kansas,39.82652589,-95.56421698,2021-01-30,1176,KS,34
20015,Butler,Kansas,37.78134351,-96.83878537,2021-01-30,6765,KS,61
20017,Chase,Kansas,38.30292938,-96.59563862,2021-01-30,232,KS,3
20019,Chautauqua,Kansas,37.14994405,-96.2454192,2021-01-30,234,KS,4
20021,Cherokee,Kansas,37.16928494,-94.8462897,2021-01-30,2191,KS,36
20023,Cheyenne,Kansas,39.78580976,-101.7318201,2021-01-30,337,KS,11
20025,Clark,Kansas,37.23577007,-99.81883015,2021-01-30,230,KS,6
20027,Clay,Kansas,39.34948772,-97.16518128,2021-01-30,745,KS,23
20029,Cloud,Kansas,39.48028352,-97.64925343,2021-01-30,952,KS,24
20031,Coffey,Kansas,38.2365018,-95.73379515,2021-01-30,621,KS,14
20033,Comanche,Kansas,37.1911452,-99.27113247,2021-01-30,152,KS,5
20035,Cowley,Kansas,37.23781842,-96.83776647,2021-01-30,3467,KS,64
20037,Crawford,Kansas,37.50675523,-94.85245778,2021-01-30,4199,KS,58
20039,Decatur,Kansas,39.78468441,-100.4594081,2021-01-30,252,KS,9
20041,Dickinson,Kansas,38.86600962,-97.15532383,2021-01-30,1606,KS,26
20043,Doniphan,Kansas,39.79067154,-95.14056866,2021-01-30,894,KS,12
20045,Douglas,Kansas,38.88503636,-95.2925121,2021-01-30,8005,KS,64
20047,Edwards,Kansas,37.88735543,-99.31263309,2021-01-30,237,KS,12
20049,Elk,Kansas,37.45338105,-96.24369667,2021-01-30,159,KS,2
20051,Ellis,Kansas,38.91458712,-99.31751551,2021-01-30,3463,KS,61
20053,Ellsworth,Kansas,38.69677695,-98.20462799,2021-01-30,1162,KS,18
20055,Finney,Kansas,38.04340344,-100.7381938,2021-01-30,5881,KS,67
20057,Ford,Kansas,37.69200114,-99.88825298,2021-01-30,5459,KS,52
20059,Franklin,Kansas,38.56443815,-95.28644341,2021-01-30,2264,KS,29
20061,Geary,Kansas,38.99871131,-96.7577178,2021-01-30,2718,KS,19
20063,Gove,Kansas,38.91588178,-100.4829321,2021-01-30,370,KS,19
20065,Graham,Kansas,39.34987223,-99.88332493,2021-01-30,244,KS,5
20067,Grant,Kansas,37.56227336,-101.3079758,2021-01-30,906,KS,14
20069,Gray,Kansas,37.73836671,-100.4369088,2021-01-30,543,KS,12
20071,Greeley,Kansas,38.4808095,-101.8061079,2021-01-30,101,KS,1
20073,Greenwood,Kansas,37.8774388,-96.23250453,2021-01-30,523,KS,10
20075,Hamilton,Kansas,37.99978709,-101.7921066,2021-01-30,199,KS,0
20077,Harper,Kansas,37.19175361,-98.07578384,2021-01-30,565,KS,19
20079,Harvey,Kansas,38.04293782,-97.42747573,2021-01-30,3224,KS,40
20081,Haskell,Kansas,37.5620394,-100.8710738,2021-01-30,401,KS,6
20083,Hodgeman,Kansas,38.08780079,-99.89829881,2021-01-30,178,KS,5
20085,Jackson,Kansas,39.41673394,-95.79356799,2021-01-30,1259,KS,11
20087,Jefferson,Kansas,39.2347941,-95.38289232,2021-01-30,1521,KS,27
20089,Jewell,Kansas,39.78470589,-98.21820662,2021-01-30,184,KS,3
20091,Johnson,Kansas,38.88548175,-94.82250877,2021-01-30,49641,KS,655
20093,Kearny,Kansas,38.00017981,-101.321681,2021-01-30,548,KS,11
20095,Kingman,Kansas,37.55909527,-98.13638678,2021-01-30,671,KS,12
20097,Kiowa,Kansas,37.55848695,-99.2856537,2021-01-30,227,KS,4
20099,Labette,Kansas,37.19113093,-95.29849679,2021-01-30,2428,KS,10
20101,Lane,Kansas,38.48119447,-100.4660754,2021-01-30,120,KS,7
20103,Leavenworth,Kansas,39.20183497,-95.03620809,2021-01-30,6186,KS,59
20105,Lincoln,Kansas,39.04549684,-98.20756994,2021-01-30,248,KS,4
20107,Linn,Kansas,38.21267844,-94.84254089,2021-01-30,710,KS,4
20109,Logan,Kansas,38.91735806,-101.148475,2021-01-30,287,KS,6
20111,Lyon,Kansas,38.45576156,-96.15275715,2021-01-30,3862,KS,72
20115,Marion,Kansas,38.35855394,-97.0985251,2021-01-30,951,KS,10
20117,Marshall,Kansas,39.78359669,-96.52278974,2021-01-30,926,KS,20
20113,McPherson,Kansas,38.39184858,-97.64769869,2021-01-30,2929,KS,63
20119,Meade,Kansas,37.23859987,-100.364831,2021-01-30,478,KS,7
20121,Miami,Kansas,38.56383358,-94.83832189,2021-01-30,2482,KS,28
20123,Mitchell,Kansas,39.39331582,-98.20906732,2021-01-30,542,KS,11
20125,Montgomery,Kansas,37.19236568,-95.74329258,2021-01-30,2995,KS,46
20127,Morris,Kansas,38.68827511,-96.65128437,2021-01-30,508,KS,17
20129,Morton,Kansas,37.19141121,-101.7992519,2021-01-30,231,KS,8
20131,Nemaha,Kansas,39.78345387,-96.01392079,2021-01-30,1416,KS,50
20133,Neosho,Kansas,37.55862897,-95.30670046,2021-01-30,1590,KS,16
20135,Ness,Kansas,38.47974157,-99.91547333,2021-01-30,340,KS,15
20137,Norton,Kansas,39.78443827,-99.90286639,2021-01-30,1184,KS,26
20139,Osage,Kansas,38.65235984,-95.72707998,2021-01-30,1067,KS,16
20141,Osborne,Kansas,39.3503437,-98.76753828,2021-01-30,271,KS,3
20143,Ottawa,Kansas,39.13237408,-97.65020313,2021-01-30,527,KS,10
80020,Out of KS,Kansas,0,0,2021-01-30,0,KS,0
20145,Pawnee,Kansas,38.18108732,-99.23692334,2021-01-30,1106,KS,11
20147,Phillips,Kansas,39.78465501,-99.34668865,2021-01-30,654,KS,17
20149,Pottawatomie,Kansas,39.37925655,-96.34564657,2021-01-30,1502,KS,13
20151,Pratt,Kansas,37.64780729,-98.73922153,2021-01-30,781,KS,23
20153,Rawlins,Kansas,39.78525843,-101.0761617,2021-01-30,285,KS,6
20155,Reno,Kansas,37.95230263,-98.08607292,2021-01-30,8019,KS,114
20157,Republic,Kansas,39.82799632,-97.65036709,2021-01-30,647,KS,10
20159,Rice,Kansas,38.34616184,-98.19992118,2021-01-30,996,KS,5
20161,Riley,Kansas,39.28935726,-96.73420026,2021-01-30,5934,KS,30
20163,Rooks,Kansas,39.35022773,-99.32484567,2021-01-30,602,KS,11
20165,Rush,Kansas,38.52275276,-99.30863983,2021-01-30,418,KS,10
20167,Russell,Kansas,38.91462787,-98.76254297,2021-01-30,798,KS,22
20169,Saline,Kansas,38.78369175,-97.65185177,2021-01-30,5542,KS,96
20171,Scott,Kansas,38.48222076,-100.9066539,2021-01-30,557,KS,14
20173,Sedgwick,Kansas,37.6842718,-97.4608198,2021-01-30,49884,KS,533
20175,Seward,Kansas,37.19324632,-100.8507201,2021-01-30,3704,KS,27
20177,Shawnee,Kansas,39.04100763,-95.7557264,2021-01-30,15147,KS,274
20179,Sheridan,Kansas,39.35018161,-100.4418259,2021-01-30,422,KS,9
20181,Sherman,Kansas,39.35147699,-101.7197624,2021-01-30,582,KS,11
20183,Smith,Kansas,39.78516566,-98.78566062,2021-01-30,252,KS,2
20185,Stafford,Kansas,38.03100851,-98.71762001,2021-01-30,321,KS,9
20187,Stanton,Kansas,37.56304714,-101.7843534,2021-01-30,174,KS,6
20189,Stevens,Kansas,37.1923008,-101.3118967,2021-01-30,530,KS,7
20191,Sumner,Kansas,37.23682549,-97.47721621,2021-01-30,1891,KS,35
20193,Thomas,Kansas,39.35107575,-101.0553705,2021-01-30,1014,KS,17
20195,Trego,Kansas,38.91467218,-99.87284448,2021-01-30,376,KS,6
90020,Unassigned,Kansas,0,0,2021-01-30,0,KS,0
20197,Wabaunsee,Kansas,38.95471985,-96.20350509,2021-01-30,606,KS,12
20199,Wallace,Kansas,38.91686134,-101.7638876,2021-01-30,166,KS,4
20201,Washington,Kansas,39.78420784,-97.0875323,2021-01-30,489,KS,8
20203,Wichita,Kansas,38.48178252,-101.3471509,2021-01-30,210,KS,5
20205,Wilson,Kansas,37.55937174,-95.74323255,2021-01-30,842,KS,10
20207,Woodson,Kansas,37.8865336,-95.74006277,2021-01-30,184,KS,3
20209,Wyandotte,Kansas,39.11727348,-94.76378225,2021-01-30,18114,KS,230
21001,Adair,Kentucky,37.10459774,-85.28129668,2021-01-30,1441,KY,47
21003,Allen,Kentucky,36.75197631,-86.19457544,2021-01-30,1544,KY,21
21005,Anderson,Kentucky,38.00671029,-84.99171713,2021-01-30,1437,KY,12
21007,Ballard,Kentucky,37.05842757,-88.99427697,2021-01-30,308,KY,3
21009,Barren,Kentucky,36.96469836,-85.93338945,2021-01-30,3475,KY,39
21011,Bath,Kentucky,38.14735938,-83.74588932,2021-01-30,697,KY,14
21013,Bell,Kentucky,36.73355174,-83.67766671,2021-01-30,2423,KY,32
21015,Boone,Kentucky,38.97065142,-84.72615357,2021-01-30,10719,KY,50
21017,Bourbon,Kentucky,38.2054607,-84.21827874,2021-01-30,1401,KY,4
21019,Boyd,Kentucky,38.36176608,-82.68652187,2021-01-30,4225,KY,35
21021,Boyle,Kentucky,37.62680923,-84.8633779,2021-01-30,2955,KY,25
21023,Bracken,Kentucky,38.69158994,-84.08532444,2021-01-30,443,KY,3
21025,Breathitt,Kentucky,37.52333168,-83.31959161,2021-01-30,830,KY,3
21027,Breckinridge,Kentucky,37.77377239,-86.42885017,2021-01-30,991,KY,5
21029,Bullitt,Kentucky,37.97162523,-85.68955617,2021-01-30,5490,KY,33
21031,Butler,Kentucky,37.20946153,-86.68748787,2021-01-30,1151,KY,18
21033,Caldwell,Kentucky,37.14749129,-87.86948214,2021-01-30,1135,KY,21
21035,Calloway,Kentucky,36.62093411,-88.2731593,2021-01-30,3177,KY,32
21037,Campbell,Kentucky,38.94384345,-84.37875208,2021-01-30,6686,KY,39
21039,Carlisle,Kentucky,36.85372876,-88.9669222,2021-01-30,404,KY,1
21041,Carroll,Kentucky,38.66599534,-85.12601074,2021-01-30,806,KY,10
21043,Carter,Kentucky,38.31690743,-83.05092385,2021-01-30,1818,KY,20
21045,Casey,Kentucky,37.32533118,-84.92726209,2021-01-30,1068,KY,29
21047,Christian,Kentucky,36.89267803,-87.49055367,2021-01-30,5726,KY,71
21049,Clark,Kentucky,37.9689263,-84.14615986,2021-01-30,2149,KY,16
21051,Clay,Kentucky,37.16451126,-83.712575,2021-01-30,2191,KY,22
21053,Clinton,Kentucky,36.72581156,-85.13377529,2021-01-30,1229,KY,21
21055,Crittenden,Kentucky,37.35839237,-88.0882609,2021-01-30,503,KY,14
21057,Cumberland,Kentucky,36.78926125,-85.39050034,2021-01-30,592,KY,7
21059,Daviess,Kentucky,37.73028906,-87.0901948,2021-01-30,8519,KY,141
21061,Edmonson,Kentucky,37.21218923,-86.23955613,2021-01-30,706,KY,15
21063,Elliott,Kentucky,38.11624059,-83.09771563,2021-01-30,902,KY,1
21065,Estill,Kentucky,37.69241417,-83.95956369,2021-01-30,876,KY,0
21067,Fayette,Kentucky,38.0368225,-84.45576892,2021-01-30,29617,KY,181
21069,Fleming,Kentucky,38.36758311,-83.69657514,2021-01-30,994,KY,12
21071,Floyd,Kentucky,37.56213922,-82.74750924,2021-01-30,2688,KY,20
21073,Franklin,Kentucky,38.2379395,-84.87962551,2021-01-30,3146,KY,24
21075,Fulton,Kentucky,36.55238827,-89.20140068,2021-01-30,438,KY,4
21077,Gallatin,Kentucky,38.75398691,-84.8558382,2021-01-30,569,KY,16
21079,Garrard,Kentucky,37.6388668,-84.53289319,2021-01-30,1274,KY,4
21081,Grant,Kentucky,38.64962758,-84.62415957,2021-01-30,1659,KY,11
21083,Graves,Kentucky,36.72292505,-88.65143315,2021-01-30,3664,KY,63
21085,Grayson,Kentucky,37.46231118,-86.34248968,2021-01-30,1718,KY,42
21087,Green,Kentucky,37.26484328,-85.5540745,2021-01-30,968,KY,13
21089,Greenup,Kentucky,38.54332505,-82.9215658,2021-01-30,3068,KY,23
21091,Hancock,Kentucky,37.83766422,-86.78280584,2021-01-30,728,KY,13
21093,Hardin,Kentucky,37.6976111,-85.96319251,2021-01-30,7955,KY,66
21095,Harlan,Kentucky,36.85699301,-83.21899516,2021-01-30,2217,KY,51
21097,Harrison,Kentucky,38.44188174,-84.32869741,2021-01-30,1349,KY,5
21099,Hart,Kentucky,37.29943898,-85.88461055,2021-01-30,1639,KY,22
21101,Henderson,Kentucky,37.79344553,-87.57392021,2021-01-30,3967,KY,54
21103,Henry,Kentucky,38.44942688,-85.11587507,2021-01-30,1076,KY,6
21105,Hickman,Kentucky,36.6794808,-88.97875928,2021-01-30,278,KY,7
21107,Hopkins,Kentucky,37.30939025,-87.54670406,2021-01-30,3556,KY,111
21109,Jackson,Kentucky,37.41866422,-83.99825483,2021-01-30,1106,KY,27
21111,Jefferson,Kentucky,38.18664655,-85.65931031,2021-01-30,65913,KY,680
21113,Jessamine,Kentucky,37.87119786,-84.58252003,2021-01-30,3634,KY,48
21115,Johnson,Kentucky,37.85106355,-82.8264322,2021-01-30,1554,KY,17
21117,Kenton,Kentucky,38.93950319,-84.53241199,2021-01-30,12784,KY,88
21119,Knott,Kentucky,37.35388197,-82.94981134,2021-01-30,891,KY,14
21121,Knox,Kentucky,36.89225732,-83.85403396,2021-01-30,2581,KY,11
21123,Larue,Kentucky,37.54567114,-85.70138352,2021-01-30,1060,KY,7
21125,Laurel,Kentucky,37.10975748,-84.11321779,2021-01-30,5132,KY,18
21127,Lawrence,Kentucky,38.07136018,-82.72882223,2021-01-30,1074,KY,10
21129,Lee,Kentucky,37.59645942,-83.71513901,2021-01-30,1126,KY,18
21131,Leslie,Kentucky,37.09246661,-83.37999606,2021-01-30,694,KY,2
21133,Letcher,Kentucky,37.12306748,-82.85346474,2021-01-30,1487,KY,5
21135,Lewis,Kentucky,38.53184419,-83.37735618,2021-01-30,1013,KY,30
21137,Lincoln,Kentucky,37.45475628,-84.6565327,2021-01-30,1895,KY,30
21139,Livingston,Kentucky,37.21137452,-88.34797529,2021-01-30,641,KY,16
21141,Logan,Kentucky,36.85949479,-86.877635,2021-01-30,2198,KY,46
21143,Lyon,Kentucky,37.02080035,-88.07886257,2021-01-30,414,KY,12
21151,Madison,Kentucky,37.71659336,-84.27220275,2021-01-30,7536,KY,56
21153,Magoffin,Kentucky,37.70820545,-83.0657714,2021-01-30,807,KY,1
21155,Marion,Kentucky,37.55218078,-85.26898542,2021-01-30,1904,KY,20
21157,Marshall,Kentucky,36.8800707,-88.32803576,2021-01-30,2229,KY,35
21159,Martin,Kentucky,37.79990579,-82.51247478,2021-01-30,857,KY,11
21161,Mason,Kentucky,38.59471935,-83.82151043,2021-01-30,1232,KY,26
21145,McCracken,Kentucky,37.05350953,-88.70445755,2021-01-30,5210,KY,56
21147,McCreary,Kentucky,36.73874143,-84.48102924,2021-01-30,1455,KY,15
21149,McLean,Kentucky,37.5301951,-87.26803443,2021-01-30,772,KY,24
21163,Meade,Kentucky,37.96163597,-86.21028219,2021-01-30,1670,KY,7
21165,Menifee,Kentucky,37.94090733,-83.59985712,2021-01-30,331,KY,10
21167,Mercer,Kentucky,37.81474237,-84.87488475,2021-01-30,2156,KY,14
21169,Metcalfe,Kentucky,36.99459295,-85.63123699,2021-01-30,802,KY,13
21171,Monroe,Kentucky,36.71225341,-85.71596443,2021-01-30,1159,KY,35
21173,Montgomery,Kentucky,38.03253032,-83.9145241,2021-01-30,1963,KY,21
21175,Morgan,Kentucky,37.92465657,-83.25558245,2021-01-30,1905,KY,0
21177,Muhlenberg,Kentucky,37.21425819,-87.14632053,2021-01-30,2538,KY,41
21179,Nelson,Kentucky,37.80335779,-85.4657193,2021-01-30,4067,KY,24
21181,Nicholas,Kentucky,38.33342292,-84.01889177,2021-01-30,418,KY,5
21183,Ohio,Kentucky,37.47751843,-86.85368087,2021-01-30,2074,KY,40
21185,Oldham,Kentucky,38.39791089,-85.448222,2021-01-30,6394,KY,66
80021,Out of KY,Kentucky,0,0,2021-01-30,0,KY,0
21187,Owen,Kentucky,38.51679143,-84.82404619,2021-01-30,559,KY,7
21189,Owsley,Kentucky,37.42823949,-83.68811419,2021-01-30,364,KY,10
21191,Pendleton,Kentucky,38.69607718,-84.35599463,2021-01-30,823,KY,1
21193,Perry,Kentucky,37.25023553,-83.22922731,2021-01-30,1991,KY,25
21195,Pike,Kentucky,37.47088263,-82.39487445,2021-01-30,4510,KY,46
21197,Powell,Kentucky,37.83218794,-83.82553961,2021-01-30,883,KY,0
21199,Pulaski,Kentucky,37.10466131,-84.57629079,2021-01-30,5110,KY,65
21201,Robertson,Kentucky,38.51923469,-84.05055616,2021-01-30,177,KY,10
21203,Rockcastle,Kentucky,37.36642393,-84.31176452,2021-01-30,1208,KY,12
21205,Rowan,Kentucky,38.19484205,-83.42088935,2021-01-30,1726,KY,8
21207,Russell,Kentucky,36.99308373,-85.06070117,2021-01-30,1387,KY,34
21209,Scott,Kentucky,38.29622293,-84.5816631,2021-01-30,3470,KY,24
21211,Shelby,Kentucky,38.21476019,-85.194223,2021-01-30,3875,KY,33
21213,Simpson,Kentucky,36.74058474,-86.58047435,2021-01-30,1515,KY,21
21215,Spencer,Kentucky,38.03223971,-85.32749335,2021-01-30,1308,KY,5
21217,Taylor,Kentucky,37.3677562,-85.3329931,2021-01-30,2254,KY,26
21219,Todd,Kentucky,36.8381152,-87.17878374,2021-01-30,939,KY,20
21221,Trigg,Kentucky,36.80767017,-87.87333656,2021-01-30,946,KY,7
21223,Trimble,Kentucky,38.61056487,-85.33775972,2021-01-30,523,KY,3
90021,Unassigned,Kentucky,0,0,2021-01-30,0,KY,0
21225,Union,Kentucky,37.66166713,-87.94300009,2021-01-30,1195,KY,11
21227,Warren,Kentucky,36.99903045,-86.42672751,2021-01-30,13238,KY,106
21229,Washington,Kentucky,37.75599461,-85.17407732,2021-01-30,1165,KY,22
21231,Wayne,Kentucky,36.80310688,-84.8251971,2021-01-30,1816,KY,28
21233,Webster,Kentucky,37.52168356,-87.67989953,2021-01-30,1046,KY,17
21235,Whitley,Kentucky,36.75700531,-84.14541217,2021-01-30,3687,KY,14
21237,Wolfe,Kentucky,37.73941626,-83.49303612,2021-01-30,382,KY,4
21239,Woodford,Kentucky,38.04178222,-84.7417556,2021-01-30,1757,KY,4
22001,Acadia,Louisiana,30.2950649,-92.41419698,2021-01-30,5798,LA,177
22003,Allen,Louisiana,30.65385745,-92.82442028,2021-01-30,2793,LA,79
22005,Ascension,Louisiana,30.20406249,-90.9132841,2021-01-30,10205,LA,136
22007,Assumption,Louisiana,29.89946234,-91.06461642,2021-01-30,1922,LA,31
22009,Avoyelles,Louisiana,31.07796211,-92.00079449,2021-01-30,3458,LA,110
22011,Beauregard,Louisiana,30.64836518,-93.34173616,2021-01-30,2595,LA,60
22013,Bienville,Louisiana,32.34569994,-93.05398492,2021-01-30,1508,LA,65
22015,Bossier,Louisiana,32.67932307,-93.60460152,2021-01-30,11695,LA,235
22017,Caddo,Louisiana,32.57991587,-93.88375652,2021-01-30,22644,LA,606
22019,Calcasieu,Louisiana,30.22931235,-93.35400434,2021-01-30,17614,LA,321
22021,Caldwell,Louisiana,32.0902519,-92.11752148,2021-01-30,1048,LA,24
22023,Cameron,Louisiana,29.87592238,-93.19310676,2021-01-30,480,LA,5
22025,Catahoula,Louisiana,31.66778967,-91.84526385,2021-01-30,1020,LA,33
22027,Claiborne,Louisiana,32.82308512,-92.99526883,2021-01-30,1342,LA,48
22029,Concordia,Louisiana,31.44817835,-91.63814433,2021-01-30,1700,LA,53
22031,De Soto,Louisiana,32.05457447,-93.74130302,2021-01-30,2402,LA,61
22033,East Baton Rouge,Louisiana,30.53842039,-91.09777565,2021-01-30,32307,LA,669
22035,East Carroll,Louisiana,32.73926954,-91.23425694,2021-01-30,1083,LA,20
22037,East Feliciana,Louisiana,30.84425359,-91.04976723,2021-01-30,2811,LA,102
22039,Evangeline,Louisiana,30.72985248,-92.39915924,2021-01-30,3067,LA,72
22041,Franklin,Louisiana,32.13675181,-91.67589857,2021-01-30,2335,LA,100
22043,Grant,Louisiana,31.59882456,-92.56124347,2021-01-30,1830,LA,43
22045,Iberia,Louisiana,29.86803617,-91.75871777,2021-01-30,5981,LA,138
22047,Iberville,Louisiana,30.25734305,-91.3499598,2021-01-30,3209,LA,85
22049,Jackson,Louisiana,32.30251776,-92.55692092,2021-01-30,1632,LA,44
22051,Jefferson,Louisiana,29.74075478,-90.11115756,2021-01-30,40755,LA,785
22053,Jefferson Davis,Louisiana,30.26896765,-92.81210004,2021-01-30,2727,LA,77
22059,LaSalle,Louisiana,31.67884782,-92.15907765,2021-01-30,1347,LA,33
22055,Lafayette,Louisiana,30.2049055,-92.06959876,2021-01-30,20457,LA,233
22057,Lafourche,Louisiana,29.52470226,-90.40976986,2021-01-30,8218,LA,179
22061,Lincoln,Louisiana,32.6003154,-92.6659741,2021-01-30,4017,LA,84
22063,Livingston,Louisiana,30.44143993,-90.73061664,2021-01-30,11174,LA,158
22065,Madison,Louisiana,32.36918118,-91.23973355,2021-01-30,1517,LA,28
22067,Morehouse,Louisiana,32.81686191,-91.80421614,2021-01-30,2583,LA,61
22069,Natchitoches,Louisiana,31.72321584,-93.09816516,2021-01-30,3661,LA,74
22071,Orleans,Louisiana,30.06971951,-89.92660315,2021-01-30,26177,LA,720
22073,Ouachita,Louisiana,32.47645559,-92.15704172,2021-01-30,16992,LA,374
80022,Out of LA,Louisiana,0,0,2021-01-30,0,LA,0
22075,Plaquemines,Louisiana,29.42245447,-89.60322085,2021-01-30,2112,LA,22
22077,Pointe Coupee,Louisiana,30.71409502,-91.60209535,2021-01-30,2258,LA,64
22079,Rapides,Louisiana,31.19778499,-92.52997303,2021-01-30,10648,LA,259
22081,Red River,Louisiana,32.09530039,-93.34213308,2021-01-30,799,LA,30
22083,Richland,Louisiana,32.41391005,-91.76634876,2021-01-30,2200,LA,44
22085,Sabine,Louisiana,31.56388699,-93.55433981,2021-01-30,2573,LA,48
22087,St. Bernard,Louisiana,29.87761636,-89.51887093,2021-01-30,3226,LA,45
22089,St. Charles,Louisiana,29.90709658,-90.35555967,2021-01-30,4752,LA,87
22091,St. Helena,Louisiana,30.82210324,-90.71013176,2021-01-30,848,LA,8
22093,St. James,Louisiana,30.02531716,-90.80212061,2021-01-30,1709,LA,46
22095,St. John the Baptist,Louisiana,30.12597499,-90.4753503,2021-01-30,3270,LA,128
22097,St. Landry,Louisiana,30.59724262,-92.00135806,2021-01-30,7830,LA,225
22099,St. Martin,Louisiana,30.13112107,-91.61403569,2021-01-30,4582,LA,101
22101,St. Mary,Louisiana,29.69262097,-91.44702164,2021-01-30,3808,LA,113
22103,St. Tammany,Louisiana,30.40942847,-89.95642711,2021-01-30,21444,LA,433
22105,Tangipahoa,Louisiana,30.62888673,-90.40664996,2021-01-30,11002,LA,236
22107,Tensas,Louisiana,32.00760749,-91.32915234,2021-01-30,342,LA,5
22109,Terrebonne,Louisiana,29.37343766,-90.82626855,2021-01-30,8563,LA,183
90022,Unassigned,Louisiana,0,0,2021-01-30,415,LA,0
22111,Union,Louisiana,32.83121059,-92.3749373,2021-01-30,2205,LA,72
22113,Vermilion,Louisiana,29.83517605,-92.30292538,2021-01-30,4551,LA,99
22115,Vernon,Louisiana,31.10884837,-93.18153838,2021-01-30,2686,LA,88
22117,Washington,Louisiana,30.85288548,-90.03866652,2021-01-30,3803,LA,109
22119,Webster,Louisiana,32.70847669,-93.33121835,2021-01-30,3685,LA,83
22121,West Baton Rouge,Louisiana,30.46058217,-91.30989571,2021-01-30,2288,LA,50
22123,West Carroll,Louisiana,32.78550125,-91.461201,2021-01-30,1112,LA,37
22125,West Feliciana,Louisiana,30.87882871,-91.4148538,2021-01-30,1078,LA,28
22127,Winn,Louisiana,31.94449367,-92.63789413,2021-01-30,1383,LA,35
23001,Androscoggin,Maine,44.1664747,-70.20380627,2021-01-30,4302,ME,55
23003,Aroostook,Maine,46.65926321,-68.59841248,2021-01-30,1129,ME,39
23005,Cumberland,Maine,43.8370751,-70.37226999,2021-01-30,11160,ME,156
23007,Franklin,Maine,44.97330019,-70.44381045,2021-01-30,767,ME,8
23009,Hancock,Maine,44.59816444,-68.38401854,2021-01-30,773,ME,30
23011,Kennebec,Maine,44.40759555,-69.76738544,2021-01-30,3102,ME,43
23013,Knox,Maine,44.11486325,-69.10529169,2021-01-30,577,ME,4
23015,Lincoln,Maine,44.05996956,-69.54227124,2021-01-30,468,ME,2
80023,Out of ME,Maine,0,0,2021-01-30,0,ME,0
23017,Oxford,Maine,44.49952995,-70.75682123,2021-01-30,1905,ME,35
23019,Penobscot,Maine,45.40194593,-68.65020455,2021-01-30,3408,ME,63
23021,Piscataquis,Maine,45.83839062,-69.2860223,2021-01-30,200,ME,1
23023,Sagadahoc,Maine,43.95415864,-69.85074999,2021-01-30,772,ME,1
23025,Somerset,Maine,45.51229767,-69.95995554,2021-01-30,1084,ME,25
90023,Unassigned,Maine,0,0,2021-01-30,7,ME,0
23027,Waldo,Maine,44.4858305,-69.12061935,2021-01-30,507,ME,18
23029,Washington,Maine,45.01607142,-67.62813524,2021-01-30,618,ME,10
23031,York,Maine,43.47808377,-70.71052375,2021-01-30,8389,ME,100
24001,Allegany,Maryland,39.62357628,-78.69280486,2021-01-30,6175,MD,182
24003,Anne Arundel,Maryland,39.00670238,-76.60329337,2021-01-30,32737,MD,470
24005,Baltimore,Maryland,39.45784712,-76.62911955,2021-01-30,47111,MD,1146
24510,Baltimore City,Maryland,39.30211911,-76.61151012,2021-01-30,37771,MD,816
24009,Calvert,Maryland,38.53961642,-76.56820632,2021-01-30,3392,MD,61
24011,Caroline,Maryland,38.87172293,-75.82904158,2021-01-30,1874,MD,16
24013,Carroll,Maryland,39.56453592,-77.02373735,2021-01-30,6890,MD,194
24015,Cecil,Maryland,39.56647682,-75.94627411,2021-01-30,4745,MD,111
24017,Charles,Maryland,38.51092331,-76.98580666,2021-01-30,7965,MD,145
24019,Dorchester,Maryland,38.45413522,-76.02752426,2021-01-30,2074,MD,35
24021,Frederick,Maryland,39.47296601,-77.39999394,2021-01-30,15531,MD,243
24023,Garrett,Maryland,39.52786077,-79.27355126,2021-01-30,1790,MD,57
24025,Harford,Maryland,39.55010644,-76.3077594,2021-01-30,11287,MD,207
24027,Howard,Maryland,39.25305293,-76.93126208,2021-01-30,14496,MD,204
24029,Kent,Maryland,39.24976208,-76.04741541,2021-01-30,1033,MD,36
24031,Montgomery,Maryland,39.13676329,-77.20358245,2021-01-30,58710,MD,1300
80024,Out of MD,Maryland,0,0,2021-01-30,0,MD,0
24033,Prince George's,Maryland,38.83070039,-76.8496441,2021-01-30,67583,MD,1228
24035,Queen Anne's,Maryland,39.06198912,-76.03530977,2021-01-30,2363,MD,34
24039,Somerset,Maryland,38.1163542,-75.75118623,2021-01-30,2239,MD,26
24037,St. Mary's,Maryland,38.30058422,-76.6062928,2021-01-30,4558,MD,104
24041,Talbot,Maryland,38.76618159,-76.10882561,2021-01-30,1673,MD,21
90024,Unassigned,Maryland,0,0,2021-01-30,0,MD,39
24043,Washington,Maryland,39.60835778,-77.82002295,2021-01-30,11376,MD,226
24045,Wicomico,Maryland,38.37301947,-75.62705831,2021-01-30,6297,MD,128
24047,Worcester,Maryland,38.21274277,-75.33200012,2021-01-30,3056,MD,78
25001,Barnstable,Massachusetts,41.72980578,-70.28854339,2021-01-30,8650,MA,340
25003,Berkshire,Massachusetts,42.37428441,-73.20524838,2021-01-30,4486,MA,215
25005,Bristol,Massachusetts,41.79228404,-71.10872211,2021-01-30,49986,MA,1333
25007,Dukes,Massachusetts,41.40674725,-70.68763497,2021-01-30,0,MA,0
NA,Dukes and Nantucket,Massachusetts,41.40674725,-70.68763497,2021-01-30,1854,MA,2
25009,Essex,Massachusetts,42.6687626,-70.94687179,2021-01-30,77085,MA,1964
25011,Franklin,Massachusetts,42.58119713,-72.58602547,2021-01-30,1769,MA,97
25013,Hampden,Massachusetts,42.13440424,-72.63235561,2021-01-30,36953,MA,1200
25015,Hampshire,Massachusetts,42.33997957,-72.65898478,2021-01-30,5607,MA,233
25017,Middlesex,Massachusetts,42.48607732,-71.39049229,2021-01-30,101488,MA,3114
25019,Nantucket,Massachusetts,41.2942019,-70.08774729,2021-01-30,0,MA,0
25021,Norfolk,Massachusetts,42.16073095,-71.20530408,2021-01-30,40104,MA,1474
80025,Out of MA,Massachusetts,0,0,2021-01-30,0,MA,0
25023,Plymouth,Massachusetts,41.94070556,-70.80802823,2021-01-30,35779,MA,1159
25025,Suffolk,Massachusetts,42.3279514,-71.07850442,2021-01-30,71259,MA,1561
90025,Unassigned,Massachusetts,0,0,2021-01-30,27214,MA,8
25027,Worcester,Massachusetts,42.35026951,-71.90493363,2021-01-30,59126,MA,1831
26001,Alcona,Michigan,44.6846864,-83.59507875,2021-01-30,409,MI,23
26003,Alger,Michigan,46.41292944,-86.60260122,2021-01-30,424,MI,3
26005,Allegan,Michigan,42.59147037,-85.89102866,2021-01-30,6918,MI,106
26007,Alpena,Michigan,45.03477666,-83.62212411,2021-01-30,1416,MI,45
26009,Antrim,Michigan,44.99690221,-85.15503082,2021-01-30,850,MI,17
26011,Arenac,Michigan,44.0636262,-83.89277559,2021-01-30,701,MI,23
26013,Baraga,Michigan,46.6720582,-88.36363591,2021-01-30,581,MI,31
26015,Barry,Michigan,42.59513984,-85.30834519,2021-01-30,3538,MI,40
26017,Bay,Michigan,43.70639106,-83.98731479,2021-01-30,7097,MI,263
26019,Benzie,Michigan,44.63899297,-86.01608482,2021-01-30,862,MI,30
26021,Berrien,Michigan,41.95447397,-86.4131308,2021-01-30,10801,MI,224
26023,Branch,Michigan,41.91600556,-85.05929476,2021-01-30,3623,MI,81
26025,Calhoun,Michigan,42.24633834,-85.00493569,2021-01-30,8913,MI,217
26027,Cass,Michigan,41.91522292,-85.99405727,2021-01-30,3737,MI,57
26029,Charlevoix,Michigan,45.37790017,-85.19614053,2021-01-30,986,MI,12
26031,Cheboygan,Michigan,45.44787015,-84.50122149,2021-01-30,854,MI,34
26033,Chippewa,Michigan,46.29552653,-84.54353449,2021-01-30,1704,MI,22
26035,Clare,Michigan,43.98794227,-84.8481986,2021-01-30,1493,MI,68
26037,Clinton,Michigan,42.94400871,-84.60145248,2021-01-30,4727,MI,66
26039,Crawford,Michigan,44.68255561,-84.61006219,2021-01-30,556,MI,5
26041,Delta,Michigan,45.9048491,-86.9080745,2021-01-30,3074,MI,82
26043,Dickinson,Michigan,46.00999672,-87.86961634,2021-01-30,2331,MI,69
26045,Eaton,Michigan,42.59599185,-84.83740035,2021-01-30,5845,MI,135
26047,Emmet,Michigan,45.52625509,-84.89083249,2021-01-30,1397,MI,35
NA,Federal Correctional Institution (FCI),Michigan,0,0,2021-01-30,303,MI,5
26049,Genesee,Michigan,43.02244215,-83.70589709,2021-01-30,24327,MI,728
26051,Gladwin,Michigan,43.98901072,-84.38774817,2021-01-30,1416,MI,42
26053,Gogebic,Michigan,46.40862701,-89.69377193,2021-01-30,1170,MI,44
26055,Grand Traverse,Michigan,44.69565625,-85.55585247,2021-01-30,3913,MI,57
26057,Gratiot,Michigan,43.29265605,-84.60505416,2021-01-30,2682,MI,95
26059,Hillsdale,Michigan,41.88753639,-84.59312019,2021-01-30,3132,MI,68
26061,Houghton,Michigan,46.89988536,-88.68495385,2021-01-30,2474,MI,38
26063,Huron,Michigan,43.83353985,-83.04078453,2021-01-30,1989,MI,53
26065,Ingham,Michigan,42.59716886,-84.37472069,2021-01-30,15006,MI,260
26067,Ionia,Michigan,42.94502238,-85.07413319,2021-01-30,3961,MI,63
26069,Iosco,Michigan,44.35486835,-83.63484895,2021-01-30,1250,MI,62
26071,Iron,Michigan,46.20974132,-88.53136251,2021-01-30,912,MI,46
26073,Isabella,Michigan,43.64060976,-84.84664923,2021-01-30,3842,MI,69
26075,Jackson,Michigan,42.24807035,-84.42258681,2021-01-30,8973,MI,202
26077,Kalamazoo,Michigan,42.24542231,-85.53038622,2021-01-30,14219,MI,309
26079,Kalkaska,Michigan,44.68512729,-85.09085699,2021-01-30,554,MI,14
26081,Kent,Michigan,43.03197711,-85.54934642,2021-01-30,49242,MI,656
26083,Keweenaw,Michigan,47.63197653,-88.41434263,2021-01-30,130,MI,2
26085,Lake,Michigan,43.99050893,-85.802173,2021-01-30,345,MI,11
26087,Lapeer,Michigan,43.09052506,-83.22153148,2021-01-30,4568,MI,114
26089,Leelanau,Michigan,44.94430054,-85.80150326,2021-01-30,821,MI,11
26091,Lenawee,Michigan,41.89475156,-84.06603727,2021-01-30,5698,MI,92
26093,Livingston,Michigan,42.60302282,-83.91297209,2021-01-30,9599,MI,112
26095,Luce,Michigan,46.47227431,-85.54471223,2021-01-30,204,MI,1
26097,Mackinac,Michigan,46.07028979,-85.04980537,2021-01-30,421,MI,3
26099,Macomb,Michigan,42.69158356,-82.92752801,2021-01-30,55852,MI,1860
26101,Manistee,Michigan,44.33352407,-86.05626916,2021-01-30,748,MI,19
26103,Marquette,Michigan,46.4338914,-87.64043701,2021-01-30,3884,MI,54
26105,Mason,Michigan,43.99509218,-86.24988902,2021-01-30,1178,MI,26
26107,Mecosta,Michigan,43.64064262,-85.32463223,2021-01-30,1869,MI,18
26109,Menominee,Michigan,45.58038692,-87.55370409,2021-01-30,1847,MI,35
NA,Michigan Department of Corrections (MDOC),Michigan,0,0,2021-01-30,23709,MI,142
26111,Midland,Michigan,43.64330771,-84.38804374,2021-01-30,4721,MI,56
26113,Missaukee,Michigan,44.33772443,-85.09256478,2021-01-30,680,MI,16
26115,Monroe,Michigan,41.92734151,-83.53749864,2021-01-30,9168,MI,181
26117,Montcalm,Michigan,43.31082541,-85.15252824,2021-01-30,3339,MI,84
26119,Montmorency,Michigan,45.0275929,-84.12696227,2021-01-30,348,MI,17
26121,Muskegon,Michigan,43.29123859,-86.15176712,2021-01-30,10267,MI,298
26123,Newaygo,Michigan,43.554374,-85.80070107,2021-01-30,2633,MI,44
26125,Oakland,Michigan,42.66090111,-83.38595416,2021-01-30,70447,MI,1898
26127,Oceana,Michigan,43.64124435,-86.26726673,2021-01-30,1813,MI,48
26129,Ogemaw,Michigan,44.33481032,-84.12725175,2021-01-30,1080,MI,30
26131,Ontonagon,Michigan,46.6652262,-89.31390481,2021-01-30,371,MI,18
26133,Osceola,Michigan,43.98992088,-85.32566756,2021-01-30,987,MI,22
26135,Oscoda,Michigan,44.68192279,-84.12939244,2021-01-30,375,MI,18
26137,Otsego,Michigan,45.02085831,-84.59898295,2021-01-30,1087,MI,25
26139,Ottawa,Michigan,42.95996803,-85.9969107,2021-01-30,21226,MI,334
80026,Out of MI,Michigan,0,0,2021-01-30,1848,MI,11
26141,Presque Isle,Michigan,45.34018577,-83.91498656,2021-01-30,621,MI,23
26143,Roscommon,Michigan,44.33473082,-84.61067651,2021-01-30,1087,MI,31
26145,Saginaw,Michigan,43.33433923,-84.0513121,2021-01-30,14136,MI,468
26151,Sanilac,Michigan,43.42406072,-82.82055898,2021-01-30,1874,MI,73
26153,Schoolcraft,Michigan,46.19235734,-86.19972234,2021-01-30,251,MI,5
26155,Shiawassee,Michigan,42.953928,-84.14585902,2021-01-30,3557,MI,72
26147,St. Clair,Michigan,42.92655373,-82.67937954,2021-01-30,8225,MI,231
26149,St. Joseph,Michigan,41.91441767,-85.52797979,2021-01-30,4408,MI,75
26157,Tuscola,Michigan,43.46606813,-83.41897025,2021-01-30,3060,MI,127
90026,Unassigned,Michigan,0,0,2021-01-30,16,MI,0
26159,Van Buren,Michigan,42.25190229,-86.01939087,2021-01-30,4728,MI,94
26161,Washtenaw,Michigan,42.253105,-83.83853204,2021-01-30,16725,MI,225
26163,Wayne,Michigan,42.28098405,-83.281255,2021-01-30,96685,MI,3982
26165,Wexford,Michigan,44.33853602,-85.57712739,2021-01-30,1300,MI,20
27001,Aitkin,Minnesota,46.60962049,-93.4116826,2021-01-30,1126,MN,33
27003,Anoka,Minnesota,45.27476015,-93.24604565,2021-01-30,31709,MN,371
27005,Becker,Minnesota,46.93479392,-95.67158144,2021-01-30,2923,MN,40
27007,Beltrami,Minnesota,47.97373527,-94.93732139,2021-01-30,3202,MN,48
27009,Benton,Minnesota,45.69804958,-93.99514135,2021-01-30,4278,MN,88
27011,Big Stone,Minnesota,45.42712824,-96.41403739,2021-01-30,471,MN,3
27013,Blue Earth,Minnesota,44.03554215,-94.06699781,2021-01-30,5544,MN,33
27015,Brown,Minnesota,44.24205652,-94.72562874,2021-01-30,2218,MN,35
27017,Carlton,Minnesota,46.59180601,-92.67601019,2021-01-30,2882,MN,43
27019,Carver,Minnesota,44.82017001,-93.8009918,2021-01-30,7136,MN,39
27021,Cass,Minnesota,46.95043611,-94.32603968,2021-01-30,2119,MN,24
27023,Chippewa,Minnesota,45.02343421,-95.56403693,2021-01-30,1336,MN,33
27025,Chisago,Minnesota,45.5021011,-92.90861945,2021-01-30,4663,MN,38
27027,Clay,Minnesota,46.89289518,-96.48761922,2021-01-30,6655,MN,84
27029,Clearwater,Minnesota,47.57992111,-95.37790562,2021-01-30,689,MN,14
27031,Cook,Minnesota,47.90504893,-90.52629546,2021-01-30,117,MN,0
27033,Cottonwood,Minnesota,44.00715262,-95.18138802,2021-01-30,1302,MN,18
27035,Crow Wing,Minnesota,46.48096553,-94.06755609,2021-01-30,4939,MN,79
27037,Dakota,Minnesota,44.67172617,-93.06299363,2021-01-30,34045,MN,361
27039,Dodge,Minnesota,44.02238415,-92.86244324,2021-01-30,1425,MN,4
27041,Douglas,Minnesota,45.93348491,-95.45335469,2021-01-30,3819,MN,66
27043,Faribault,Minnesota,43.67381499,-93.94787458,2021-01-30,1120,MN,16
27045,Fillmore,Minnesota,43.67394126,-92.08980382,2021-01-30,1305,MN,8
27047,Freeborn,Minnesota,43.67385583,-93.34884422,2021-01-30,2596,MN,23
27049,Goodhue,Minnesota,44.40849741,-92.7234195,2021-01-30,3655,MN,64
27051,Grant,Minnesota,45.93424769,-96.01139609,2021-01-30,448,MN,8
27053,Hennepin,Minnesota,45.00761521,-93.47694895,2021-01-30,95579,MN,1526
27055,Houston,Minnesota,43.67129565,-91.49143057,2021-01-30,1451,MN,14
27057,Hubbard,Minnesota,47.10778564,-94.91693868,2021-01-30,1539,MN,38
27059,Isanti,Minnesota,45.56181234,-93.29487636,2021-01-30,2898,MN,44
27061,Itasca,Minnesota,47.51009045,-93.63092229,2021-01-30,2904,MN,44
27063,Jackson,Minnesota,43.67423373,-95.15398258,2021-01-30,886,MN,10
27065,Kanabec,Minnesota,45.9459309,-93.29275192,2021-01-30,1018,MN,18
27067,Kandiyohi,Minnesota,45.1526059,-95.00586446,2021-01-30,5628,MN,73
27069,Kittson,Minnesota,48.77754106,-96.78317184,2021-01-30,384,MN,21
27071,Koochiching,Minnesota,48.24539665,-93.78352843,2021-01-30,612,MN,10
27073,Lac qui Parle,Minnesota,44.9973857,-96.17488219,2021-01-30,664,MN,16
27075,Lake,Minnesota,47.64270764,-91.44557998,2021-01-30,673,MN,16
27077,Lake of the Woods,Minnesota,48.77217001,-94.90274472,2021-01-30,204,MN,1
27079,Le Sueur,Minnesota,44.37136597,-93.72844721,2021-01-30,2185,MN,16
27081,Lincoln,Minnesota,44.41311883,-96.26688165,2021-01-30,494,MN,2
27083,Lyon,Minnesota,44.41327865,-95.83806103,2021-01-30,3071,MN,41
27087,Mahnomen,Minnesota,47.32557075,-95.80921485,2021-01-30,421,MN,7
27089,Marshall,Minnesota,48.35825983,-96.37017407,2021-01-30,708,MN,15
27091,Martin,Minnesota,43.67429718,-94.55099908,2021-01-30,1732,MN,26
27085,McLeod,Minnesota,44.82367677,-94.27287017,2021-01-30,3308,MN,48
27093,Meeker,Minnesota,45.12328869,-94.52839455,2021-01-30,2025,MN,33
27095,Mille Lacs,Minnesota,45.93705297,-93.63236823,2021-01-30,2175,MN,45
27097,Morrison,Minnesota,46.01265363,-94.27341528,2021-01-30,3155,MN,45
27099,Mower,Minnesota,43.67142874,-92.75234549,2021-01-30,3815,MN,29
27101,Murray,Minnesota,44.02216709,-95.76328482,2021-01-30,925,MN,7
27103,Nicollet,Minnesota,44.35291112,-94.24710352,2021-01-30,2329,MN,39
27105,Nobles,Minnesota,43.67434621,-95.75329576,2021-01-30,3763,MN,47
27107,Norman,Minnesota,47.32628443,-96.45620947,2021-01-30,428,MN,8
27109,Olmsted,Minnesota,44.00374114,-92.40209944,2021-01-30,11042,MN,78
27111,Otter Tail,Minnesota,46.40846929,-95.70835255,2021-01-30,4678,MN,69
80027,Out of MN,Minnesota,0,0,2021-01-30,0,MN,0
27113,Pennington,Minnesota,48.06642577,-96.0370814,2021-01-30,1016,MN,16
27115,Pine,Minnesota,46.12105238,-92.74070188,2021-01-30,2727,MN,15
27117,Pipestone,Minnesota,44.02301619,-96.25841142,2021-01-30,980,MN,23
27119,Polk,Minnesota,47.77372465,-96.40134647,2021-01-30,3327,MN,60
27121,Pope,Minnesota,45.58606667,-95.44451209,2021-01-30,751,MN,5
27123,Ramsey,Minnesota,45.01625271,-93.09872295,2021-01-30,41132,MN,762
27125,Red Lake,Minnesota,47.87197525,-96.09561104,2021-01-30,322,MN,4
27127,Redwood,Minnesota,44.40555844,-95.25207021,2021-01-30,1425,MN,27
27129,Renville,Minnesota,44.72836381,-94.94553734,2021-01-30,1400,MN,40
27131,Rice,Minnesota,44.3543376,-93.29658715,2021-01-30,6372,MN,78
27133,Rock,Minnesota,43.67482683,-96.25296832,2021-01-30,1127,MN,12
27135,Roseau,Minnesota,48.77501878,-95.81079919,2021-01-30,1669,MN,17
27139,Scott,Minnesota,44.6490231,-93.53340251,2021-01-30,12396,MN,103
27141,Sherburne,Minnesota,45.44447208,-93.77617511,2021-01-30,8397,MN,71
27143,Sibley,Minnesota,44.5796592,-94.23164924,2021-01-30,1110,MN,7
27137,St. Louis,Minnesota,47.6048407,-92.46879855,2021-01-30,14172,MN,254
27145,Stearns,Minnesota,45.55192576,-94.61078221,2021-01-30,18234,MN,193
27147,Steele,Minnesota,44.02240351,-93.22627088,2021-01-30,2833,MN,10
